identifiant;adresse;code_insee;latitude;longitude;result_label;result_score;result_type;result_id;result_housenumber;result_name;result_street;result_postcode;result_city;result_context;result_citycode
IDF9500483;?;95427;;;;;;;;;;;;;
IDF7800693;rue ?;78269;48.626646;1.82313;Rue d'Orphin 78125 Gazeran;0.25;street;78269_XXXX_3ef2a2;;Rue d'Orphin;;78125;Gazeran;78, Yvelines, Île-de-France;78269
IDF9502535;Epiais, rue d';95154;49.043885;2.551808;Rue d'Épiais les Louvres 95380 Chennevières-lès-Louvres;0.42;street;95154_XXXX_c9f078;;Rue d'Épiais les Louvres;;95380;Chennevières-lès-Louvres;95, Val-d'Oise, Île-de-France;95154
IDF7800567;rue ?;78189;48.881404;1.924216;Rue de Paris 78121 Crespières;0.25;street;78189_0165_4b11e3;;Rue de Paris;;78121;Crespières;78, Yvelines, Île-de-France;78189
IDF9401642;Frileuse, 5 rue Frileuse;94037;48.810555;2.341989;5 Rue Fraysse 94250 Gentilly;0.29;housenumber;ADRNIVX_0000000270913749;5;Rue Fraysse;;94250;Gentilly;94, Val-de-Marne, Île-de-France;94037
IDF7706112;Paris, rue de;77317;48.604254;2.893775;Rue des Marais 77720 Mormant;0.47;street;77317_XXXX_b42a77;;Rue des Marais;;77720;Mormant;77, Seine-et-Marne, Île-de-France;77317
IDF7700295;RN 36;77222;;;;;;;;;;;;;
IDF7701507;Orgemont, rue d';77335;48.980248;2.841063;Rue Georges Frisez 77124 Chauconin-Neufmontiers;0.22;street;77335_0220_1032de;;Rue Georges Frisez;;77124;Chauconin-Neufmontiers;77, Seine-et-Marne, Île-de-France;77335
IDF7802157;?;78621;;;;;;;;;;;;;
IDF7800101;Vaucresson (route de);78043;48.836364;2.073707;Route de Fontenay 78870 Bailly;0.32;street;78043_XXXX_d84fb5;;Route de Fontenay;;78870;Bailly;78, Yvelines, Île-de-France;78043
IDF9101372;CR N° 4;91312;;;;;;;;;;;;;
IDF7702347;Moret, route de;77156;48.271849;2.734119;Route de Montereau 77140 Darvault;0.39;street;77156_XXXX_b23a3e;;Route de Montereau;;77140;Darvault;77, Seine-et-Marne, Île-de-France;77156
IDF9302910;RUFFINS (chemin des);93048;48.860955;2.473253;Rue des Ruffins 93100 Montreuil;0.43;street;93048_8281_dfcc03;;Rue des Ruffins;;93100;Montreuil;93, Seine-Saint-Denis, Île-de-France;93048
IDF9200133;Aigle, 9 rue de l';92012;48.83982;2.245107;9 Rue de l'Est 92100 Boulogne-Billancourt;0.5;housenumber;ADRNIVX_0000000287155879;9;Rue de l'Est;;92100;Boulogne-Billancourt;92, Hauts-de-Seine, Île-de-France;92012
IDF9201058;Lorraine, 126 boulevard de;92024;48.902566;2.318988;126 Boulevard Victor Hugo 92110 Clichy;0.4;housenumber;ADRNIVX_0000000287105681;126;Boulevard Victor Hugo;;92110;Clichy;92, Hauts-de-Seine, Île-de-France;92024
IDF9301162;MONTMORENCY (route de);93079;48.952389;2.337926;Route de Saint-Leu 93430 Villetaneuse;0.3;street;93079_XXXX_a8f717;;Route de Saint-Leu;;93430;Villetaneuse;93, Seine-Saint-Denis, Île-de-France;93079
IDF9400517;Hay, 54 rue de l'Hay;94037;48.813523;2.341441;Rue de Reims 94250 Gentilly;0.29;street;94037_8125_10ca43;;Rue de Reims;;94250;Gentilly;94, Val-de-Marne, Île-de-France;94037
IDF7705020;CD;77044;;;;;;;;;;;;;
IDF7703641;CD n°40;;51.012659;2.301127;Avenue René Carême 59760 Grande-Synthe;0.29;street;59271_XXXX_fe093d;;Avenue René Carême;;59760;Grande-Synthe;59, Nord, Hauts-de-France (Nord-Pas-de-Calais);59271
IDF7703877;Foch, 4 avenue maréchal;77382;48.902115;2.875626;Avenue du Maréchal Foch 77860 Quincy-Voisins;0.6;street;77382_XXXX_468c15;;Avenue du Maréchal Foch;;77860;Quincy-Voisins;77, Seine-et-Marne, Île-de-France;77382
IDF9501977;Gonesse, 1 route de;95585;48.990728;2.375243;1 Route de Garges 95200 Sarcelles;0.48;housenumber;ADRNIVX_0000000350612231;1;Route de Garges;;95200;Sarcelles;95, Val-d'Oise, Île-de-France;95585
IDF9401603;Frileuse, 71 rue Frileuse;94037;48.810402;2.342189;Rue Fraysse 94250 Gentilly;0.22;street;94037_3560_fd4aa3;;Rue Fraysse;;94250;Gentilly;94, Val-de-Marne, Île-de-France;94037
IDF9400506;Roncy, 110 route de Roncy;94033;48.853349;2.465507;110 Rue des Moulins 94120 Fontenay-sous-Bois;0.24;housenumber;ADRNIVX_0000000270856412;110;Rue des Moulins;;94120;Fontenay-sous-Bois;94, Val-de-Marne, Île-de-France;94033
IDF9401918;Bleuts, 2 avenue des Bleuts;94001;48.725909;2.42535;2 Avenue Georges Clemenceau 94480 Ablon-sur-Seine;0.25;housenumber;ADRNIVX_0000000271049929;2;Avenue Georges Clemenceau;;94480;Ablon-sur-Seine;94, Val-de-Marne, Île-de-France;94001
IDF9100944;Champrosay, Résidence de;91201;48.659093;2.422521;Rue du Bas de Champrosay 91210 Draveil;0.34;street;91201_0260_3eec99;;Rue du Bas de Champrosay;;91210;Draveil;91, Essonne, Île-de-France;91201
IDF9100969;Liberté, 22 rue de la;91201;48.684629;2.427115;22 Rue de la Galante 91210 Draveil;0.43;housenumber;ADRNIVX_0000000349387944;22;Rue de la Galante;;91210;Draveil;91, Essonne, Île-de-France;91201
IDF7700693;Portes de la Forêt, parc d'activités;77121;;;;;;;;;;;;;
IDF7706847;Porte du bois, parc d'activité;77121;;;;;;;;;;;;;
IDF9300697;POISSONNIERS (7 route des);93066;48.924054;2.342716;Route de la Révolte 93200 Saint-Denis;0.22;street;93066_XXXX_f7bd33;;Route de la Révolte;;93200;Saint-Denis;93, Seine-Saint-Denis, Île-de-France;93066
IDF9300698;CORNILLON (ZAC SUD);93066;48.918021;2.364962;Chemin du Cornillon 93210 Saint-Denis;0.33;street;93066_XXXX_994423;;Chemin du Cornillon;;93210;Saint-Denis;93, Seine-Saint-Denis, Île-de-France;93066
IDF9300699;CROIX PENCHEE (la);93066;48.945569;2.340948;FORT DE LA BRICHE 93200 Saint-Denis;0.22;street;93066_X180_8133fc;;FORT DE LA BRICHE;;93200;Saint-Denis;93, Seine-Saint-Denis, Île-de-France;93066
IDF9301818;BOIS MESURIER (le);93027;48.922002;2.414271;Rue Lavoisier 93120 La Courneuve;0.26;street;93027_5130_a0ad20;;Rue Lavoisier;;93120;La Courneuve;93, Seine-Saint-Denis, Île-de-France;93027
IDF9302908;BELFORT (32 boulevard de);93048;48.860368;2.439245;32 Boulevard Rouget de Lisle 93100 Montreuil;0.45;housenumber;ADRNIVX_0000000268331063;32;Boulevard Rouget de Lisle;;93100;Montreuil;93, Seine-Saint-Denis, Île-de-France;93048
IDF9403082;Aqueducs, 56 rue des Aqueducs;94037;48.81437;2.330465;Rue des Aqueducs 94250 Gentilly;0.51;street;94037_0055_e6b8b7;;Rue des Aqueducs;;94250;Gentilly;94, Val-de-Marne, Île-de-France;94037
IDF9501352;Leclerc, 151 av du Général;95063;48.929528;2.228852;Boulevard du Général Delambre 95870 Bezons;0.26;street;95063_XXXX_32ac73;;Boulevard du Général Delambre;;95870;Bezons;95, Val-d'Oise, Île-de-France;95063
IDF9302912;MOINES (22, ruelle aux);93048;48.861976;2.423883;Rue des Ravins 93100 Montreuil;0.26;street;93048_8145_9eb9c8;;Rue des Ravins;;93100;Montreuil;93, Seine-Saint-Denis, Île-de-France;93048
IDF9400507;Noyers, 9 rue des Noyers;94037;48.814328;2.330659;9 Rue des Aqueducs 94250 Gentilly;0.3;housenumber;ADRNIVX_0000002009749622;9;Rue des Aqueducs;;94250;Gentilly;94, Val-de-Marne, Île-de-France;94037
IDF9400509;Frileuse, 57 rue Frileuse;94037;48.815075;2.349438;57 Rue Charles Frérot 94250 Gentilly;0.25;housenumber;ADRNIVX_0000000270902261;57;Rue Charles Frérot;;94250;Gentilly;94, Val-de-Marne, Île-de-France;94037
IDF9400515;Montrouge, 39 rue de Montrouge;94037;48.809522;2.344215;Rue du Moulin de la Roche 94250 Gentilly;0.28;street;94037_6181_191137;;Rue du Moulin de la Roche;;94250;Gentilly;94, Val-de-Marne, Île-de-France;94037
IDF9400516;Noyers, 3 rue des Noyers;94037;48.816498;2.35053;3 Rue des 4 Tours 94250 Gentilly;0.33;housenumber;ADRNIVX_0000000270899454;3;Rue des 4 Tours;;94250;Gentilly;94, Val-de-Marne, Île-de-France;94037
IDF9400518;Montrouge, 111 rue de Montrouge;94037;48.809522;2.344215;Rue du Moulin de la Roche 94250 Gentilly;0.27;street;94037_6181_191137;;Rue du Moulin de la Roche;;94250;Gentilly;94, Val-de-Marne, Île-de-France;94037
IDF9400519;Robine, 10 rue Robine;94037;48.814402;2.339987;10 Rue Romain Rolland 94250 Gentilly;0.32;housenumber;ADRNIVX_0000000270903534;10;Rue Romain Rolland;;94250;Gentilly;94, Val-de-Marne, Île-de-France;94037
IDF9400521;Pont Neuf, 11 rue du Pont Neuf;94037;48.814534;2.346926;11 Rue du Président Wilson 94250 Gentilly;0.3;housenumber;ADRNIVX_0000000270903459;11;Rue du Président Wilson;;94250;Gentilly;94, Val-de-Marne, Île-de-France;94037
IDF9400796;Durand, 64 Avenue du Docteur Durand;94037;48.815208;2.347488;Rue du Docteur Tenine 94250 Gentilly;0.33;street;94037_2570_4c1301;;Rue du Docteur Tenine;;94250;Gentilly;94, Val-de-Marne, Île-de-France;94037
IDF9400798;Poterne, avenue de la Poterne;94037;;;;;;;;;;;;;
IDF9400799;Fontainebleau, Route de Fontainebleau;94037;;;;;;;;;;;;;
IDF9400801;Bobillot, rue Bobillot;94037;;;;;;;;;;;;;
IDF9400803;Mairie, 45 rue de la Mairie (1903), ex rue de la Comète;94037;;;;;;;;;;;;;
IDF9400806;noyers, 8 rue des;94037;48.816498;2.35053;Rue des 4 Tours 94250 Gentilly;0.35;street;94037_XXXX_4cd450;;Rue des 4 Tours;;94250;Gentilly;94, Val-de-Marne, Île-de-France;94037
IDF9401319;Paris, 33 rue de Paris;94037;48.811349;2.349532;33 Rue Pascal 94250 Gentilly;0.31;housenumber;ADRNIVX_0000000270912475;33;Rue Pascal;;94250;Gentilly;94, Val-de-Marne, Île-de-France;94037
IDF9400807;Glacière;94037;48.809988;2.344648;Ruelle des Glaisières 94250 Gentilly;0.21;street;94037_XXXX_3a2a04;;Ruelle des Glaisières;;94250;Gentilly;94, Val-de-Marne, Île-de-France;94037
IDF9400808;Prêtres, chemin des Prêtres;94037;;;;;;;;;;;;;
IDF9400745;Glacière, 21 Rue de la Glacière;94037;48.813945;2.352599;Rue de la Bièvre 94250 Gentilly;0.31;street;94037_XXXX_747e0c;;Rue de la Bièvre;;94250;Gentilly;94, Val-de-Marne, Île-de-France;94037
IDF9400746;Frileuse, 83 Rue Frileuse;94037;48.814482;2.347788;83 Rue Charles Frérot 94250 Gentilly;0.25;housenumber;ADRNIVX_0000000270903450;83;Rue Charles Frérot;;94250;Gentilly;94, Val-de-Marne, Île-de-France;94037
IDF9400994;Hay, 162 rue de l'Hay;94037;48.813523;2.341441;Rue de Reims 94250 Gentilly;0.28;street;94037_8125_10ca43;;Rue de Reims;;94250;Gentilly;94, Val-de-Marne, Île-de-France;94037
IDF9401300;Cote d'argent, 21 rue de la Cote d'argent;94037;48.809267;2.344048;21 Rue du Moulin de la Roche 94250 Gentilly;0.27;housenumber;ADRNIVX_0000000270917144;21;Rue du Moulin de la Roche;;94250;Gentilly;94, Val-de-Marne, Île-de-France;94037
IDF9401302;Acqueducs et Comète, angle de la rue des Acqueducs et de la rue de la Comète;94037;;;;;;;;;;;;;
IDF9401303;Acqueducs, 16 rue des Acqueducs;94037;48.81437;2.330465;Rue des Aqueducs 94250 Gentilly;0.43;street;94037_0055_e6b8b7;;Rue des Aqueducs;;94250;Gentilly;94, Val-de-Marne, Île-de-France;94037
IDF9401304;Acqueducs,23 rue des Acqueducs;94037;48.81437;2.330465;Rue des Aqueducs 94250 Gentilly;0.43;street;94037_0055_e6b8b7;;Rue des Aqueducs;;94250;Gentilly;94, Val-de-Marne, Île-de-France;94037
IDF9401308;Frileuse, 77 rue Frileuse;94037;48.814726;2.348268;77 Rue Charles Frérot 94250 Gentilly;0.25;housenumber;ADRNIVX_0000000270903446;77;Rue Charles Frérot;;94250;Gentilly;94, Val-de-Marne, Île-de-France;94037
IDF9401309;Glacière, 9 bis rue de la Glacière;94037;48.813945;2.352599;Rue de la Bièvre 94250 Gentilly;0.36;street;94037_XXXX_747e0c;;Rue de la Bièvre;;94250;Gentilly;94, Val-de-Marne, Île-de-France;94037
IDF9401315;Mairie, 13 place de la Mairie;94037;48.816278;2.350763;Place de la Victoire du 8 Mai 1945 94250 Gentilly;0.37;street;94037_XXXX_96b66e;;Place de la Victoire du 8 Mai 1945;;94250;Gentilly;94, Val-de-Marne, Île-de-France;94037
IDF9401316;Montrouge, 127 route de Montrouge;94037;48.809023;2.34457;Passage du Moulin de la Roche 94250 Gentilly;0.22;street;94037_XXXX_d1e2de;;Passage du Moulin de la Roche;;94250;Gentilly;94, Val-de-Marne, Île-de-France;94037
IDF9401317;Paris, 13 rue de Paris;94037;48.814942;2.346164;13 Rue de la Poste 94250 Gentilly;0.34;housenumber;ADRNIVX_0000000270902293;13;Rue de la Poste;;94250;Gentilly;94, Val-de-Marne, Île-de-France;94037
IDF9401318;Paris, 21 rue de Paris;94037;48.81101;2.348797;21 Rue Pascal 94250 Gentilly;0.31;housenumber;ADRNIVX_0000000270913715;21;Rue Pascal;;94250;Gentilly;94, Val-de-Marne, Île-de-France;94037
IDF9401327;Rousseau, 29 bis et 29 ter rue Jean-Jacques Rousseau;94037;48.81509;2.355016;Allée Jacques Prévert 94250 Gentilly;0.16;street;94037_XXXX_279212;;Allée Jacques Prévert;;94250;Gentilly;94, Val-de-Marne, Île-de-France;94037
IDF9401411;Frileuse, 55 rue Frileuse;94037;48.815184;2.349624;55 Rue Charles Frérot 94250 Gentilly;0.25;housenumber;ADRNIVX_0000000270901303;55;Rue Charles Frérot;;94250;Gentilly;94, Val-de-Marne, Île-de-France;94037
IDF9401414;Dufaut, 13 rue Dufaut;94037;48.81167;2.34653;Rue du Bout du Rang 94250 Gentilly;0.3;street;94037_0680_3fc7eb;;Rue du Bout du Rang;;94250;Gentilly;94, Val-de-Marne, Île-de-France;94037
IDF9401496;Frileuse, 47 rue Frileuse;94037;48.815427;2.350035;47 Rue Charles Frérot 94250 Gentilly;0.25;housenumber;ADRNIVX_0000000270901298;47;Rue Charles Frérot;;94250;Gentilly;94, Val-de-Marne, Île-de-France;94037
IDF9401497;Montrouge, 34 rue de Montrouge;94037;48.809522;2.344215;Rue du Moulin de la Roche 94250 Gentilly;0.28;street;94037_6181_191137;;Rue du Moulin de la Roche;;94250;Gentilly;94, Val-de-Marne, Île-de-France;94037
IDF9401499;Montrouge, 35 rue de Montrouge;94037;48.80851;2.343531;35 Rue du Moulin de la Roche 94250 Gentilly;0.31;housenumber;ADRNIVX_0000000270918164;35;Rue du Moulin de la Roche;;94250;Gentilly;94, Val-de-Marne, Île-de-France;94037
IDF9401606;Moyers, 7 rue Moyers;94037;48.813619;2.331457;7 Rue Foubert 94250 Gentilly;0.23;housenumber;ADRNIVX_0000000270906052;7;Rue Foubert;;94250;Gentilly;94, Val-de-Marne, Île-de-France;94037
IDF9401607;Aqueducs, 16 rue des Aqueducs;94037;48.81437;2.330465;Rue des Aqueducs 94250 Gentilly;0.51;street;94037_0055_e6b8b7;;Rue des Aqueducs;;94250;Gentilly;94, Val-de-Marne, Île-de-France;94037
IDF9403227;Frileuse, 60 rue Frileuse;94037;48.815305;2.349541;60 Rue Charles Frérot 94250 Gentilly;0.25;housenumber;ADRNIVX_0000000270901304;60;Rue Charles Frérot;;94250;Gentilly;94, Val-de-Marne, Île-de-France;94037
IDF9401609;Montrouge, 89-93  et 110 rue de Montrouge;94037;48.809522;2.344215;Rue du Moulin de la Roche 94250 Gentilly;0.24;street;94037_6181_191137;;Rue du Moulin de la Roche;;94250;Gentilly;94, Val-de-Marne, Île-de-France;94037
IDF9401610;Glacière, 14 bis rue de la Glacière;94037;48.813945;2.352599;Rue de la Bièvre 94250 Gentilly;0.34;street;94037_XXXX_747e0c;;Rue de la Bièvre;;94250;Gentilly;94, Val-de-Marne, Île-de-France;94037
IDF9401614;Hay, 162 rue de l'Hay;94037;48.813523;2.341441;Rue de Reims 94250 Gentilly;0.28;street;94037_8125_10ca43;;Rue de Reims;;94250;Gentilly;94, Val-de-Marne, Île-de-France;94037
IDF9401615;Tolbiac, 236 rue de Tolbiac;94037;48.813523;2.341441;Rue de Reims 94250 Gentilly;0.22;street;94037_8125_10ca43;;Rue de Reims;;94250;Gentilly;94, Val-de-Marne, Île-de-France;94037
IDF9401630;Frileuse, 59 rue Frileuse;94037;48.815026;2.349333;59 Rue Charles Frérot 94250 Gentilly;0.25;housenumber;ADRNIVX_0000000270902262;59;Rue Charles Frérot;;94250;Gentilly;94, Val-de-Marne, Île-de-France;94037
IDF9401633;Paris, 14 rue de Paris;94037;48.813844;2.342005;14 Rue de la Paix 94250 Gentilly;0.41;housenumber;ADRNIVX_0000002009749650;14;Rue de la Paix;;94250;Gentilly;94, Val-de-Marne, Île-de-France;94037
IDF9403592;Fontainebleau, route de Fontainebleau;94037;;;;;;;;;;;;;
IDF9403593;Pot au Lait, rue du Pot au Lait;94037;;;;;;;;;;;;;
IDF9403594;Paris actuellement, la barrière croulebarbe;94037;;;;;;;;;;;;;
IDF9403595;Glacière, 23 rue de la Glacière;94037;48.813945;2.352599;Rue de la Bièvre 94250 Gentilly;0.31;street;94037_XXXX_747e0c;;Rue de la Bièvre;;94250;Gentilly;94, Val-de-Marne, Île-de-France;94037
IDF9403591;Pot au Lait, rue du pot au Lait;94037;;;;;;;;;;;;;
IDF9403596;Fontainebleau, 55 route de Fontainebleau;94037;48.809522;2.344215;Rue du Moulin de la Roche 94250 Gentilly;0.16;street;94037_6181_191137;;Rue du Moulin de la Roche;;94250;Gentilly;94, Val-de-Marne, Île-de-France;94037
IDF9403599;PARIS GLACIERE;94037;;;;;;;;;;;;;
IDF9403600;PARIS GLACIERE;94037;;;;;;;;;;;;;
IDF9403602;PARIS GLACIERE;94037;;;;;;;;;;;;;
IDF9403603;Fontainebleau, route de Fontainebleau;94037;;;;;;;;;;;;;
IDF9403083;Frileuse, 49 rue Frileuse;94037;48.810402;2.342189;Rue Fraysse 94250 Gentilly;0.22;street;94037_3560_fd4aa3;;Rue Fraysse;;94250;Gentilly;94, Val-de-Marne, Île-de-France;94037
IDF9403118;Hay, 68 rue de l'Hay;94037;48.813523;2.341441;Rue de Reims 94250 Gentilly;0.29;street;94037_8125_10ca43;;Rue de Reims;;94250;Gentilly;94, Val-de-Marne, Île-de-France;94037
IDF9403587;Paris actuellement, Hameau de la maison Blanche;94037;;;;;;;;;;;;;
IDF9403589;Grande rue, 23 Grande rue;94037;48.813523;2.341441;Rue de Reims 94250 Gentilly;0.2;street;94037_8125_10ca43;;Rue de Reims;;94250;Gentilly;94, Val-de-Marne, Île-de-France;94037
IDF9403590;Fontainebleau, 12 barrière de Fontainebleau;94037;;;;;;;;;;;;;
IDF9403191;Orléans, 77 route d'Orléans;94037;48.814726;2.348268;77 Rue Charles Frérot 94250 Gentilly;0.2;housenumber;ADRNIVX_0000000270903446;77;Rue Charles Frérot;;94250;Gentilly;94, Val-de-Marne, Île-de-France;94037
IDF9301880;CRETTE DE PALLUEL (rue);93030;;;;;;;;;;;;;
IDF9301881;CRETTE DE PALLUEL (rue);93030;;;;;;;;;;;;;
IDF9302608;AVENIR (25 rue de l');93045;48.877684;2.419304;Rue de l'Est 93260 Les Lilas;0.36;street;93045_XXXX_19704b;;Rue de l'Est;;93260;Les Lilas;93, Seine-Saint-Denis, Île-de-France;93045
IDF9302546;GRANDE RUE (3);93061;48.883377;2.405501;Grande Avenue 93310 Le Pré-Saint-Gervais;0.38;street;93061_XXXX_a2fe53;;Grande Avenue;;93310;Le Pré-Saint-Gervais;93, Seine-Saint-Denis, Île-de-France;93061
IDF9302547;PANTIN (1 rue de);93061;48.884247;2.40379;1 Rue Danton 93310 Le Pré-Saint-Gervais;0.41;housenumber;ADRNIVX_0000000268290252;1;Rue Danton;;93310;Le Pré-Saint-Gervais;93, Seine-Saint-Denis, Île-de-France;93061
IDF9302548;PANTIN (188 route de);93061;48.878689;2.411284;Rue de Paris 93310 Le Pré-Saint-Gervais;0.19;street;93061_7120_a0bd89;;Rue de Paris;;93310;Le Pré-Saint-Gervais;93, Seine-Saint-Denis, Île-de-France;93061
IDF9302549;PLATRIERE (18 rue);93061;48.885085;2.407007;18 Rue Émile Zola 93310 Le Pré-Saint-Gervais;0.31;housenumber;ADRNIVX_0000000268288669;18;Rue Émile Zola;;93310;Le Pré-Saint-Gervais;93, Seine-Saint-Denis, Île-de-France;93061
IDF9302889;ROSNY A NOISY (route stratégique de);93048;;;;;;;;;;;;;
IDF9302550;GRANDE RUE (19);93061;48.883377;2.405501;Grande Avenue 93310 Le Pré-Saint-Gervais;0.36;street;93061_XXXX_a2fe53;;Grande Avenue;;93310;Le Pré-Saint-Gervais;93, Seine-Saint-Denis, Île-de-France;93061
IDF9302551;PANTIN (59 et 91 rue de);93061;48.884468;2.406968;Rue Danton 93310 Le Pré-Saint-Gervais;0.26;street;93061_2520_2dd458;;Rue Danton;;93310;Le Pré-Saint-Gervais;93, Seine-Saint-Denis, Île-de-France;93061
IDF9302893;FONTENAY (31 à 41 route de);93048;48.871402;2.434486;41 Rue du Moulin à Vent 93100 Montreuil;0.27;housenumber;ADRNIVX_0000000268313744;41;Rue du Moulin à Vent;;93100;Montreuil;93, Seine-Saint-Denis, Île-de-France;93048
IDF9200011;Dames, 19 rue des;92004;48.916055;2.294356;19 Rue des Bas 92600 Asnières-sur-Seine;0.52;housenumber;ADRNIVX_0000000287086831;19;Rue des Bas;;92600;Asnières-sur-Seine;92, Hauts-de-Seine, Île-de-France;92004
IDF9200047;Allégot, 19 rue M.;92049;48.812484;2.317087;19 Rue Boileau 92120 Montrouge;0.31;housenumber;ADRNIVX_0000000311762270;19;Rue Boileau;;92120;Montrouge;92, Hauts-de-Seine, Île-de-France;92049
IDF9200139;Brosselette, 79/81 rue Pierre;92024;48.909905;2.308131;Rue Pierre Dac 92110 Clichy;0.32;street;92024_7170_bc3b98;;Rue Pierre Dac;;92110;Clichy;92, Hauts-de-Seine, Île-de-France;92024
IDF9302894;VERRERIE (89 rue de la);93048;48.877476;2.46385;Rue de la Renardière 93100 Montreuil;0.46;street;93048_8175_b4441c;;Rue de la Renardière;;93100;Montreuil;93, Seine-Saint-Denis, Île-de-France;93048
IDF9200155;Ledru-Rollin, 31/35 rue;92023;;;;;;;;;;;;;
IDF9200179;Gauron, 2/6 impasse;92046;48.816387;2.299292;6 Impasse Vauban 92240 Malakoff;0.37;housenumber;ADRNIVX_0000000287184444;6;Impasse Vauban;;92240;Malakoff;92, Hauts-de-Seine, Île-de-France;92046
IDF9200184;Moils, 11 rue des;92036;48.928548;2.291134;11 Rue des Nollées 92230 Gennevilliers;0.43;housenumber;ADRNIVX_0000000287074560;11;Rue des Nollées;;92230;Gennevilliers;92, Hauts-de-Seine, Île-de-France;92036
IDF9200194;Versailles, 13 boulevard du;92073;48.867849;2.226773;13 Boulevard Henri Sellier 92150 Suresnes;0.37;housenumber;ADRNIVX_0000000287145545;13;Boulevard Henri Sellier;;92150;Suresnes;92, Hauts-de-Seine, Île-de-France;92073
IDF9200203;Victoire, 28 rue de la;92024;48.902954;2.313039;Place de la République François Mitterrand 92110 Clichy;0.29;street;92024_XXXX_22b321;;Place de la République François Mitterrand;;92110;Clichy;92, Hauts-de-Seine, Île-de-France;92024
IDF9200119;Voltaire, 149 boulevard;92024;48.903178;2.319433;149 Boulevard Victor Hugo 92110 Clichy;0.35;housenumber;ADRNIVX_0000000287105695;149;Boulevard Victor Hugo;;92110;Clichy;92, Hauts-de-Seine, Île-de-France;92024
IDF9200126;Bourguignons, 44 rue des;92049;48.812377;2.322576;44 Rue Carves 92120 Montrouge;0.29;housenumber;ADRNIVX_0000000287182054;44;Rue Carves;;92120;Montrouge;92, Hauts-de-Seine, Île-de-France;92049
IDF7800094;rue ?;78034;48.842042;1.817413;Grande Rue 78770 Auteuil;0.3;street;78034_XXXX_91b6d8;;Grande Rue;;78770;Auteuil;78, Yvelines, Île-de-France;78034
IDF9302591;BIENFAITEURS (10 rue des);93045;48.882894;2.424117;10 Rue des Sablons 93260 Les Lilas;0.32;housenumber;ADRNIVX_0000000268292342;10;Rue des Sablons;;93260;Les Lilas;93, Seine-Saint-Denis, Île-de-France;93045
IDF9302592;NOUVELLES ECOLES (rue des);93045;48.876945;2.414302;Rue des Bruyères 93260 Les Lilas;0.31;street;93045_0670_ad4e6a;;Rue des Bruyères;;93260;Les Lilas;93, Seine-Saint-Denis, Île-de-France;93045
IDF9302541;MOINES (16 rue des);93061;48.889534;2.400125;16 Rue des 7 Arpents 93310 Le Pré-Saint-Gervais;0.36;housenumber;ADRNIVX_0000000268281274;16;Rue des 7 Arpents;;93310;Le Pré-Saint-Gervais;93, Seine-Saint-Denis, Île-de-France;93061
IDF9302542;STRATEGIQUE (21 bis route);93061;48.883405;2.405681;21 BIS Grande Avenue 93310 Le Pré-Saint-Gervais;0.25;housenumber;ADRNIVX_0000000268290927;21 BIS;Grande Avenue;;93310;Le Pré-Saint-Gervais;93, Seine-Saint-Denis, Île-de-France;93061
IDF9302543;VILLETTE (50 rue de la);93061;48.882608;2.404303;Passage de la Mairie 93310 Le Pré-Saint-Gervais;0.2;street;93061_XXXX_06df80;;Passage de la Mairie;;93310;Le Pré-Saint-Gervais;93, Seine-Saint-Denis, Île-de-France;93061
IDF9302599;NOUVELLE COMMUNE (8 rue de la);93045;48.88275;2.414643;8 Rue de la Convention 93260 Les Lilas;0.38;housenumber;ADRNIVX_0000000268292423;8;Rue de la Convention;;93260;Les Lilas;93, Seine-Saint-Denis, Île-de-France;93045
IDF9302545;GRANDE RUE (22);93061;48.883377;2.405501;Grande Avenue 93310 Le Pré-Saint-Gervais;0.36;street;93061_XXXX_a2fe53;;Grande Avenue;;93310;Le Pré-Saint-Gervais;93, Seine-Saint-Denis, Île-de-France;93061
IDF9302600;AVENIR (25 rue de l');93045;48.877684;2.419304;Rue de l'Est 93260 Les Lilas;0.36;street;93045_XXXX_19704b;;Rue de l'Est;;93260;Les Lilas;93, Seine-Saint-Denis, Île-de-France;93045
IDF9302601;AVENIR (26 rue de l');93045;48.88037;2.412806;26 Rue de l'Égalité 93260 Les Lilas;0.42;housenumber;ADRNIVX_0000000268296221;26;Rue de l'Égalité;;93260;Les Lilas;93, Seine-Saint-Denis, Île-de-France;93045
IDF9302602;AVENIR (37 rue de l');93045;48.880827;2.412635;37 Rue de l'Égalité 93260 Les Lilas;0.42;housenumber;ADRNIVX_0000000268296228;37;Rue de l'Égalité;;93260;Les Lilas;93, Seine-Saint-Denis, Île-de-France;93045
IDF9500669;Impériale de Paris à Rouen, Route;95572;;;;;;;;;;;;;
IDF9500673;?;95572;;;;;;;;;;;;;
IDF9500686;Grande communication N°67, chemin;95572;49.056912;2.134135;Chemin des Murs 95310 Saint-Ouen-l'Aumône;0.2;street;95572_XXXX_403139;;Chemin des Murs;;95310;Saint-Ouen-l'Aumône;95, Val-d'Oise, Île-de-France;95572
IDF9500771;?;95572;;;;;;;;;;;;;
IDF9500772;?;95572;;;;;;;;;;;;;
IDF9500773;?;95572;;;;;;;;;;;;;
IDF9500869;Epluches, Parc d'activités d';95572;;;;;;;;;;;;;
IDF9300704;CHEVET DE L'EGLISE (7 bis rue du);93066;48.911295;2.356802;7 BIS Rue du Bailly 93210 Saint-Denis;0.35;housenumber;ADRNIVX_0000002100420472;7 BIS;Rue du Bailly;;93210;Saint-Denis;93, Seine-Saint-Denis, Île-de-France;93066
IDF9300709;PONTOISE (route de);93066;48.943832;2.373282;Cité Montjoie 93200 Saint-Denis;0.28;street;93066_A108_253d2e;;Cité Montjoie;;93200;Saint-Denis;93, Seine-Saint-Denis, Île-de-France;93066
IDF9500895;?;95572;;;;;;;;;;;;;
IDF9500896;?;95572;;;;;;;;;;;;;
IDF9500904;?;95572;;;;;;;;;;;;;
IDF9503168;Grande Pinte, lieu dit la;95572;;;;;;;;;;;;;
IDF9503216;Palmer, 5 rue;95572;49.038141;2.141157;5 Rue du Palmer 95310 Saint-Ouen-l'Aumône;0.52;housenumber;ADRNIVX_0000000350579222;5;Rue du Palmer;;95310;Saint-Ouen-l'Aumône;95, Val-d'Oise, Île-de-France;95572
IDF9503232;Palmer, 1 rue;95572;49.039111;2.143247;1 Rue du Palmer 95310 Saint-Ouen-l'Aumône;0.52;housenumber;ADRNIVX_0000000350580143;1;Rue du Palmer;;95310;Saint-Ouen-l'Aumône;95, Val-d'Oise, Île-de-France;95572
IDF9503234;Grand Centre, centre commercial du;95572;49.044334;2.106822;Place Pierre Mendès France 95310 Saint-Ouen-l'Aumône;0.23;street;95572_XXXX_09c964;;Place Pierre Mendès France;;95310;Saint-Ouen-l'Aumône;95, Val-d'Oise, Île-de-France;95572
IDF9504229;?;95572;;;;;;;;;;;;;
IDF9304963;BOULANGERIE (35 rue de la);93066;48.934403;2.356781;Rue de la Boulangerie 93200 Saint-Denis;0.71;street;93066_0668_a0aa5d;;Rue de la Boulangerie;;93200;Saint-Denis;93, Seine-Saint-Denis, Île-de-France;93066
IDF9300685;FOURCHES (les);93066;48.941696;2.352349;CITE LES MOULINS 93200 Saint-Denis;0.21;street;93066_XXXX_922c31;;CITE LES MOULINS;;93200;Saint-Denis;93, Seine-Saint-Denis, Île-de-France;93066
IDF9300684;FOSSES SABLEUSES (les);93066;;;;;;;;;;;;;
IDF9300666;DEUX PORTS (rue des);93066;48.936122;2.344049;Rue du Port 93200 Saint-Denis;0.38;street;93066_7236_ed472f;;Rue du Port;;93200;Saint-Denis;93, Seine-Saint-Denis, Île-de-France;93066
IDF7801761;RN 10;78506;;;;;;;;;;;;;
IDF9305230;BRICHE (39 rue de la);93066;48.942345;2.340666;Rue de la Briche 93200 Saint-Denis;0.66;street;93066_0690_8f59cf;;Rue de la Briche;;93200;Saint-Denis;93, Seine-Saint-Denis, Île-de-France;93066
IDF9305404;MONTJOIE (16 impasse de la);93066;48.921134;2.362305;Impasse de la Cokerie 93210 Saint-Denis;0.42;street;93066_XXXX_fb37b1;;Impasse de la Cokerie;;93210;Saint-Denis;93, Seine-Saint-Denis, Île-de-France;93066
IDF9305406;CORNILLON (3 chemin du);93066;48.918387;2.364321;3 Chemin du Cornillon 93210 Saint-Denis;0.8;housenumber;ADRNIVX_0000000268215602;3;Chemin du Cornillon;;93210;Saint-Denis;93, Seine-Saint-Denis, Île-de-France;93066
IDF9305092;AUBERVILLIERS (18 rue d');93066;48.940635;2.373155;18 Rue d'Arnouville 93200 Saint-Denis;0.37;housenumber;ADRNIVX_0000000268162223;18;Rue d'Arnouville;;93200;Saint-Denis;93, Seine-Saint-Denis, Île-de-France;93066
IDF9305105;ORNANO (boulevard);93066;48.917254;2.344316;Boulevard Ornano 93200 Saint-Denis;0.78;street;93066_XXXX_8d9bde;;Boulevard Ornano;;93200;Saint-Denis;93, Seine-Saint-Denis, Île-de-France;93066
IDF9200283;Foucault, 4 rue Constant;92072;48.816619;2.20599;4 Rue des Capucins 92310 Sèvres;0.29;housenumber;ADRNIVX_0000000287192009;4;Rue des Capucins;;92310;Sèvres;92, Hauts-de-Seine, Île-de-France;92072
IDF9201386;Alouettes, 79 route des;92050;48.892486;2.179107;Avenue du Parc de l'Île 92000 Nanterre;0.29;street;92050_XXXX_4ce99c;;Avenue du Parc de l'Île;;92000;Nanterre;92, Hauts-de-Seine, Île-de-France;92050
IDF9201402;Beauséjour, 17 bis avenue;92014;48.788366;2.312953;17 BIS Avenue de Montrouge 92340 Bourg-la-Reine;0.36;housenumber;ADRNIVX_0000000287207565;17 BIS;Avenue de Montrouge;;92340;Bourg-la-Reine;92, Hauts-de-Seine, Île-de-France;92014
IDF9201418;Caves, 6 rue des;92036;48.926235;2.288516;6 Rue Descartes 92230 Gennevilliers;0.52;housenumber;ADRNIVX_0000000287078915;6;Rue Descartes;;92230;Gennevilliers;92, Hauts-de-Seine, Île-de-France;92036
IDF9200300;Fort-Grand, 7 place du;92007;48.78951;2.313237;Place du Port Galand 92220 Bagneux;0.52;street;92007_XXXX_70f909;;Place du Port Galand;;92220;Bagneux;92, Hauts-de-Seine, Île-de-France;92007
IDF9201016;Lorraine, 7 boulevard de;92024;48.895494;2.306359;Boulevard de Douaumont 92110 Clichy;0.37;street;92024_XXXX_c75ca1;;Boulevard de Douaumont;;92110;Clichy;92, Hauts-de-Seine, Île-de-France;92024
IDF9201030;Lille, 4 rue de;92044;48.8872;2.282967;4 Rue de Villiers 92300 Levallois-Perret;0.57;housenumber;ADRNIVX_0000000287122249;4;Rue de Villiers;;92300;Levallois-Perret;92, Hauts-de-Seine, Île-de-France;92044
IDF9201037;Fraternité,  6 avenue de la;92004;48.919373;2.284555;Avenue de la Gaîté 92600 Asnières-sur-Seine;0.43;street;92004_XXXX_db02c4;;Avenue de la Gaîté;;92600;Asnières-sur-Seine;92, Hauts-de-Seine, Île-de-France;92004
IDF9201057;Lorraine, 76/79 boulevard de;92024;48.905809;2.309506;79 Boulevard du Général Leclerc 92110 Clichy;0.35;housenumber;ADRNIVX_0000000287106757;79;Boulevard du Général Leclerc;;92110;Clichy;92, Hauts-de-Seine, Île-de-France;92024
IDF9201060;Lorraine, 69 boulevard de;92024;48.899437;2.313446;69 Boulevard Victor Hugo 92110 Clichy;0.38;housenumber;ADRNIVX_0000000287105762;69;Boulevard Victor Hugo;;92110;Clichy;92, Hauts-de-Seine, Île-de-France;92024
IDF9201757;Billancourt, 89 rue de;92073;48.864565;2.211353;89 Rue des Nouvelles 92150 Suresnes;0.33;housenumber;ADRNIVX_0000000287147346;89;Rue des Nouvelles;;92150;Suresnes;92, Hauts-de-Seine, Île-de-France;92073
IDF9200316;Guynemer, 156 avenue;92076;48.844373;2.151998;Avenue Thery 92420 Vaucresson;0.24;street;92076_XXXX_d9072b;;Avenue Thery;;92420;Vaucresson;92, Hauts-de-Seine, Île-de-France;92076
IDF9200323;Descoing, 5 impasse;92024;48.904525;2.313452;5 Impasse Dumur 92110 Clichy;0.33;housenumber;ADRNIVX_0000000287106257;5;Impasse Dumur;;92110;Clichy;92, Hauts-de-Seine, Île-de-France;92024
IDF9200352;Pernoud, 1 bis rue;92004;48.915002;2.281959;1 BIS Rue Bidel 92600 Asnières-sur-Seine;0.35;housenumber;ADRNIVX_0000000324727706;1 BIS;Rue Bidel;;92600;Asnières-sur-Seine;92, Hauts-de-Seine, Île-de-France;92004
IDF9201838;Pont Saint-Denis ,16 avenue du;92036;48.933463;2.310397;Avenue du Général de Gaulle 92230 Gennevilliers;0.71;street;92036_XXXX_137368;;Avenue du Général de Gaulle;;92230;Gennevilliers;92, Hauts-de-Seine, Île-de-France;92036
IDF9200434;Roosevelt, 87 quai du Président;92012;48.829474;2.255384;Quai Point du Jour 92100 Boulogne-Billancourt;0.27;street;92012_7231_0b4345;;Quai Point du Jour;;92100;Boulogne-Billancourt;92, Hauts-de-Seine, Île-de-France;92012
IDF9201136;Martin, 7 rue Henri;92049;48.814884;2.309376;Rue Henri Barbusse 92120 Montrouge;0.34;street;92049_4430_a1f8ca;;Rue Henri Barbusse;;92120;Montrouge;92, Hauts-de-Seine, Île-de-France;92049
IDF9201512;Corneille, 48 rue;92044;48.891896;2.2906;48 Rue du Président Wilson 92300 Levallois-Perret;0.32;housenumber;ADRNIVX_0000000287114311;48;Rue du Président Wilson;;92300;Levallois-Perret;92, Hauts-de-Seine, Île-de-France;92044
IDF9201543;Verrières, 16 rue de;92049;48.813634;2.318049;16 Rue Périer 92120 Montrouge;0.47;housenumber;ADRNIVX_0000000287182889;16;Rue Périer;;92120;Montrouge;92, Hauts-de-Seine, Île-de-France;92049
IDF9201999;Boutroux, 16 avenue;92036;48.933668;2.289361;16 Avenue du Luth 92230 Gennevilliers;0.36;housenumber;ADRNIVX_0000002009393404;16;Avenue du Luth;;92230;Gennevilliers;92, Hauts-de-Seine, Île-de-France;92036
IDF9201270;Gaillons, 2 rue des;92072;48.822291;2.212139;2 Rue des Fontaines 92310 Sèvres;0.43;housenumber;ADRNIVX_0000000287179899;2;Rue des Fontaines;;92310;Sèvres;92, Hauts-de-Seine, Île-de-France;92072
IDF9201290;Bel-Ebat, chemin de;92050;48.902194;2.194778;Rue des Prés 92000 Nanterre;0.42;street;92050_7270_10e73f;;Rue des Prés;;92000;Nanterre;92, Hauts-de-Seine, Île-de-France;92050
IDF9201309;Seine-rive-gauche, quai de;92036;;;;;;;;;;;;;
IDF9200634;Dumont, 14 avenue Augustin;92049;48.811328;2.323083;14 Avenue du Fort 92120 Montrouge;0.41;housenumber;ADRNIVX_0000000287181888;14;Avenue du Fort;;92120;Montrouge;92, Hauts-de-Seine, Île-de-France;92049
IDF7801284;?;78410;;;;;;;;;;;;;
IDF9202178;Gunsbourg, 32 rue Maurice;92040;48.829636;2.266732;Rue Maurice Mallet 92130 Issy-les-Moulineaux;0.32;street;92040_6151_eb106f;;Rue Maurice Mallet;;92130;Issy-les-Moulineaux;92, Hauts-de-Seine, Île-de-France;92040
IDF7801485;RN 13;78466;;;;;;;;;;;;;
IDF9202226;Route du bassin n°2;92036;48.949183;2.292515;Route du Bassin Numéro 6 92230 Gennevilliers;0.55;street;92036_XXXX_2ed54e;;Route du Bassin Numéro 6;;92230;Gennevilliers;92, Hauts-de-Seine, Île-de-France;92036
IDF9202242;Route du bassin, 14/16;92036;48.93789;2.266541;Route du Bassin Numéro 1 92230 Gennevilliers;0.55;street;92036_XXXX_0ce5e5;;Route du Bassin Numéro 1;;92230;Gennevilliers;92, Hauts-de-Seine, Île-de-France;92036
IDF9202419;Fouquet, 47 rue;92044;48.890718;2.286519;47 Rue Louis Rouquier 92300 Levallois-Perret;0.31;housenumber;ADRNIVX_0000000287122067;47;Rue Louis Rouquier;;92300;Levallois-Perret;92, Hauts-de-Seine, Île-de-France;92044
IDF9202047;Chapon, 99 rue Charles;92009;48.916022;2.262833;99 Rue Charles Duflos 92270 Bois-Colombes;0.46;housenumber;ADRNIVX_0000000287090897;99;Rue Charles Duflos;;92270;Bois-Colombes;92, Hauts-de-Seine, Île-de-France;92009
IDF9202454;Vaugirard, 5-7-6 bis rue de;92044;48.896991;2.29653;6 BIS Rue de la Gare 92300 Levallois-Perret;0.36;housenumber;ADRNIVX_0000002100486208;6 BIS;Rue de la Gare;;92300;Levallois-Perret;92, Hauts-de-Seine, Île-de-France;92044
IDF9202513;Bureau de gestion 110;92024;;;;;;;;;;;;;
IDF9202085;Antin, 58 rue de la Chaussée d';92036;48.927513;2.301425;Rue de la Découverte 92230 Gennevilliers;0.25;street;92036_2515_9ccc26;;Rue de la Découverte;;92230;Gennevilliers;92, Hauts-de-Seine, Île-de-France;92036
IDF9202091;Clichy, 78 quai de;92062;48.88145;2.245975;Quai de Dion Bouton 92800 Puteaux;0.21;street;92062_2547_11096c;;Quai de Dion Bouton;;92800;Puteaux;92, Hauts-de-Seine, Île-de-France;92062
IDF9202139;Suzanne, 8 rue;92044;48.887541;2.286879;8 Rue Danton 92300 Levallois-Perret;0.34;housenumber;ADRNIVX_0000000287121764;8;Rue Danton;;92300;Levallois-Perret;92, Hauts-de-Seine, Île-de-France;92044
IDF9204062;Chemin latéral;92050;48.902194;2.194778;Rue des Prés 92000 Nanterre;0.33;street;92050_7270_10e73f;;Rue des Prés;;92000;Nanterre;92, Hauts-de-Seine, Île-de-France;92050
IDF9200149;Plaisance, 24 rue de;92025;48.912671;2.241451;24 Rue de la Paix 92700 Colombes;0.45;housenumber;ADRNIVX_0000000287104225;24;Rue de la Paix;;92700;Colombes;92, Hauts-de-Seine, Île-de-France;92025
IDF9204185;Bagneux, 29 rue de;92049;48.815208;2.328502;29 Rue de la Vanne 92120 Montrouge;0.36;housenumber;ADRNIVX_0000000287181755;29;Rue de la Vanne;;92120;Montrouge;92, Hauts-de-Seine, Île-de-France;92049
IDF9204187;Gresson, 58 avenue Victor;92036;48.92024;2.292705;Rue Victor Hugo 92230 Gennevilliers;0.27;street;92036_9641_1422cf;;Rue Victor Hugo;;92230;Gennevilliers;92, Hauts-de-Seine, Île-de-France;92036
IDF9304637;JEAN JACQUES ROUSSEAU (43 - 49 rue);93048;48.870516;2.447207;49 Rue des Hanots 93100 Montreuil;0.23;housenumber;ADRNIVX_0000000268315514;49;Rue des Hanots;;93100;Montreuil;93, Seine-Saint-Denis, Île-de-France;93048
IDF9303053;VILLEMOMBLE (57 boulevard de);93077;48.893702;2.502496;57 Boulevard d'Aulnay 93250 Villemomble;0.6;housenumber;ADRNIVX_0000000268272643;57;Boulevard d'Aulnay;;93250;Villemomble;93, Seine-Saint-Denis, Île-de-France;93077
IDF9303074;VICINAL (4 chemin);93014;48.904535;2.52274;4 Chemin des Postes 93390 Clichy-sous-Bois;0.29;housenumber;ADRNIVX_0000000268252076;4;Chemin des Postes;;93390;Clichy-sous-Bois;93, Seine-Saint-Denis, Île-de-France;93014
IDF9303126;ZI;93050;;;;;;;;;;;;;
IDF9304697;AQUEDUC (107 rue de l');93048;48.870425;2.448524;Rue de l'Aqueduc 93100 Montreuil;0.62;street;93048_XXXX_6f2ea8;;Rue de l'Aqueduc;;93100;Montreuil;93, Seine-Saint-Denis, Île-de-France;93048
IDF9303290;GONESSE (route de);93005;48.940718;2.481135;Rue de Roumanie 93600 Aulnay-sous-Bois;0.3;street;93005_3190_eb7bfb;;Rue de Roumanie;;93600;Aulnay-sous-Bois;93, Seine-Saint-Denis, Île-de-France;93005
IDF9301815;BONDY (route de);93027;48.922007;2.406011;Sente de Montfort 93120 La Courneuve;0.24;street;93027_XXXX_7024a2;;Sente de Montfort;;93120;La Courneuve;93, Seine-Saint-Denis, Île-de-France;93027
IDF9304154;MARE (rue de la);93048;48.861955;2.460716;Rue de la Mare à l'Âne 93100 Montreuil;0.56;street;93048_XXXX_ebfd56;;Rue de la Mare à l'Âne;;93100;Montreuil;93, Seine-Saint-Denis, Île-de-France;93048
IDF9301861;DRANCY (23 avenue de);93013;48.931939;2.425294;Avenue Francis de Pressense 93350 Le Bourget;0.35;street;93013_XXXX_c4a116;;Avenue Francis de Pressense;;93350;Le Bourget;93, Seine-Saint-Denis, Île-de-France;93013
IDF9301865;MALADRERIE (la);93013;48.930891;2.42362;Rue du Chevalier de la Barre 93350 Le Bourget;0.24;street;93013_1440_4f18d1;;Rue du Chevalier de la Barre;;93350;Le Bourget;93, Seine-Saint-Denis, Île-de-France;93013
IDF9301889;GALANDE (20 rue) ex FORTUNE LE CALANDRE (rue);93030;;;;;;;;;;;;;
IDF9302504;LOYE (la);93055;48.915414;2.406146;Rue la Fontaine 93500 Pantin;0.23;street;93055_5100_a26f8c;;Rue la Fontaine;;93500;Pantin;93, Seine-Saint-Denis, Île-de-France;93055
IDF9302514;STRASBOURG (17 rue de);93055;48.893108;2.419135;17 Rue de Palestro 93500 Pantin;0.4;housenumber;ADRNIVX_0000000268274289;17;Rue de Palestro;;93500;Pantin;93, Seine-Saint-Denis, Île-de-France;93055
IDF9302590;GRIZELIN (passage);93045;48.876587;2.416345;Passage Ponsard 93260 Les Lilas;0.34;street;93045_XXXX_a51fdd;;Passage Ponsard;;93260;Les Lilas;93, Seine-Saint-Denis, Île-de-France;93045
IDF9301941;FLANDRE (route de);93007;48.929901;2.478555;Rue de Londres 93150 Le Blanc-Mesnil;0.3;street;93007_1570_e54a24;;Rue de Londres;;93150;Le Blanc-Mesnil;93, Seine-Saint-Denis, Île-de-France;93007
IDF9301942;FLANDRE (route de);93007;48.929901;2.478555;Rue de Londres 93150 Le Blanc-Mesnil;0.3;street;93007_1570_e54a24;;Rue de Londres;;93150;Le Blanc-Mesnil;93, Seine-Saint-Denis, Île-de-France;93007
IDF9302007;GONESSE (32 route de);93005;48.929056;2.493171;32 Route de Bondy 93600 Aulnay-sous-Bois;0.49;housenumber;ADRNIVX_0000000268188370;32;Route de Bondy;;93600;Aulnay-sous-Bois;93, Seine-Saint-Denis, Île-de-France;93005
IDF9304138;BAGNOLET (51 rue de);93048;48.857597;2.433734;51 Rue de Paris 93100 Montreuil;0.38;housenumber;ADRNIVX_0000000268335871;51;Rue de Paris;;93100;Montreuil;93, Seine-Saint-Denis, Île-de-France;93048
IDF9304140;CARNOT (86 rue);93072;48.956816;2.381994;Rue Carnot 93240 Stains;0.54;street;93072_1410_739e2b;;Rue Carnot;;93240;Stains;93, Seine-Saint-Denis, Île-de-France;93072
IDF9304144;ARMAND ESDERS (6 rue);93007;48.953324;2.44708;6 Rue Ader 93150 Le Blanc-Mesnil;0.32;housenumber;ADRNIVX_0000000268137794;6;Rue Ader;;93150;Le Blanc-Mesnil;93, Seine-Saint-Denis, Île-de-France;93007
IDF9304145;JEAN JAURES (12 avenue);93027;48.923188;2.405473;Avenue Jean Jaurès 93120 La Courneuve;0.68;street;93027_XXXX_882ccd;;Avenue Jean Jaurès;;93120;La Courneuve;93, Seine-Saint-Denis, Île-de-France;93027
IDF9304155;MALASSIS (4 rue des);93048;48.869285;2.432032;4 Rue des Lilas 93100 Montreuil;0.49;housenumber;ADRNIVX_0000000268317254;4;Rue des Lilas;;93100;Montreuil;93, Seine-Saint-Denis, Île-de-France;93048
IDF9302115;MOLLIEN (71 bis allée);93057;48.911004;2.509055;Allée Olivier 93320 Les Pavillons-sous-Bois;0.32;street;93057_XXXX_f454e6;;Allée Olivier;;93320;Les Pavillons-sous-Bois;93, Seine-Saint-Denis, Île-de-France;93057
IDF9304147;ANATOLE FRANCE (8 rue);93027;48.919681;2.40848;8 Rue Anatole France 93120 La Courneuve;0.8;housenumber;ADRNIVX_0000000268213152;8;Rue Anatole France;;93120;La Courneuve;93, Seine-Saint-Denis, Île-de-France;93027
IDF9304148;GRANDE CEINTURE (35 rue de la);93072;48.960462;2.397017;35 Rue de la Cerisaie 93240 Stains;0.39;housenumber;ADRNIVX_0000000268126665;35;Rue de la Cerisaie;;93240;Stains;93, Seine-Saint-Denis, Île-de-France;93072
IDF9304149;ECOLES (28 rue des);93045;48.87439;2.41387;28 Rue des Villegranges 93260 Les Lilas;0.42;housenumber;ADRNIVX_0000000268307750;28;Rue des Villegranges;;93260;Les Lilas;93, Seine-Saint-Denis, Île-de-France;93045
IDF9304151;EDOUARD VAILLANT (108 rue);93010;48.895197;2.487753;Rue Édouard Vaillant 93140 Bondy;0.68;street;93010_3115_db3ee7;;Rue Édouard Vaillant;;93140;Bondy;93, Seine-Saint-Denis, Île-de-France;93010
IDF9300990;GAGIN (10 cité);93070;48.902947;2.335645;10 Rue de la Gaîté 93400 Saint-Ouen-sur-Seine;0.24;housenumber;ADRNIVX_0000000268253854;10;Rue de la Gaîté;;93400;Saint-Ouen-sur-Seine;93, Seine-Saint-Denis, Île-de-France;93070
IDF9300993;"PORT (rue du) ; BOEUFS (chemin des)";93070;;;;;;;;;;;;;
IDF9300994;REVOLTE (82 rue de la);93070;48.903012;2.335741;Rue de la Gaîté 93400 Saint-Ouen-sur-Seine;0.39;street;93070_4120_d16850;;Rue de la Gaîté;;93400;Saint-Ouen-sur-Seine;93, Seine-Saint-Denis, Île-de-France;93070
IDF9301013;COUDRIER (le);93039;48.935338;2.338384;Passage Cordier 93450 L'Île-Saint-Denis;0.18;street;93039_XXXX_7baf47;;Passage Cordier;;93450;L'Île-Saint-Denis;93, Seine-Saint-Denis, Île-de-France;93039
IDF9304156;BELVEDERE (rue du);93061;48.880614;2.408543;Avenue du Belvédère 93310 Le Pré-Saint-Gervais;0.57;street;93061_XXXX_af0aad;;Avenue du Belvédère;;93310;Le Pré-Saint-Gervais;93, Seine-Saint-Denis, Île-de-France;93061
IDF9302209;CIMETIERE-AUX-CHEVAUX;93029;;;;;;;;;;;;;
IDF9302211;SABLIERE AU BLOND (la);93029;48.915162;2.454444;Rue de la Sablière 93700 Drancy;0.4;street;93029_8510_d34b75;;Rue de la Sablière;;93700;Drancy;93, Seine-Saint-Denis, Île-de-France;93029
IDF9304153;MONTHYON (allée de);93057;48.913085;2.506025;Allée de Monthyon 93320 Les Pavillons-sous-Bois;0.77;street;93057_XXXX_aca668;;Allée de Monthyon;;93320;Les Pavillons-sous-Bois;93, Seine-Saint-Denis, Île-de-France;93057
IDF9304163;DOCTEUR COLMER (19 rue du);93048;48.867145;2.440713;19 Rue du Docteur Calmette 93100 Montreuil;0.6;housenumber;ADRNIVX_0000000268320941;19;Rue du Docteur Calmette;;93100;Montreuil;93, Seine-Saint-Denis, Île-de-France;93048
IDF9301138;TEMPS PERDU (le);93031;;;;;;;;;;;;;
IDF9301159;VERT GALANT (Le);93079;;;;;;;;;;;;;
IDF9301160;MONTMORENCY (route de);93079;48.952389;2.337926;Route de Saint-Leu 93430 Villetaneuse;0.3;street;93079_XXXX_a8f717;;Route de Saint-Leu;;93430;Villetaneuse;93, Seine-Saint-Denis, Île-de-France;93079
IDF9301192;SAINT-DENIS (56 route de);93059;48.966898;2.361595;56 Rue de Paris 93380 Pierrefitte-sur-Seine;0.27;housenumber;ADRNIVX_0000000268118912;56;Rue de Paris;;93380;Pierrefitte-sur-Seine;93, Seine-Saint-Denis, Île-de-France;93059
IDF9301189;SAINT-DENIS (99 avenue de);93059;48.957599;2.35878;99 Avenue Lénine 93380 Pierrefitte-sur-Seine;0.43;housenumber;ADRNIVX_0000000268129982;99;Avenue Lénine;;93380;Pierrefitte-sur-Seine;93, Seine-Saint-Denis, Île-de-France;93059
IDF9301222;GRANDE CEINTURE (rue de la);93072;48.958905;2.378646;Place de la Grande Ceinture 93240 Stains;0.65;street;93072_XXXX_49da09;;Place de la Grande Ceinture;;93240;Stains;93, Seine-Saint-Denis, Île-de-France;93072
IDF9301223;COURNEUVE (chemin de la);93072;48.960987;2.37325;Chemin des Fourches 93240 Stains;0.32;street;93072_XXXX_1ce3ef;;Chemin des Fourches;;93240;Stains;93, Seine-Saint-Denis, Île-de-France;93072
IDF9302678;GRANDE COMMUNICATION N°17 (chemin de);93006;48.875502;2.426167;Sentier de la Tranchée 93170 Bagnolet;0.18;street;93006_XXXX_6ad3fe;;Sentier de la Tranchée;;93170;Bagnolet;93, Seine-Saint-Denis, Île-de-France;93006
IDF9302679;SAINTE BARBE (7 rue);93006;48.86297;2.423099;7 Rue Bain 93170 Bagnolet;0.47;housenumber;ADRNIVX_0000000268326257;7;Rue Bain;;93170;Bagnolet;93, Seine-Saint-Denis, Île-de-France;93006
IDF9302683;ALEXANDRE DUMAS père (rue);93006;;;;;;;;;;;;;
IDF9302685;CLOS BOUTON (2 à 4 rue du);93006;48.877433;2.433462;4 Rue du Bac 93170 Bagnolet;0.33;housenumber;ADRNIVX_0000000268302047;4;Rue du Bac;;93170;Bagnolet;93, Seine-Saint-Denis, Île-de-France;93006
IDF9302687;GERMINAL (9 rue);93006;48.862891;2.423104;9 Rue Bain 93170 Bagnolet;0.34;housenumber;ADRNIVX_0000000268326276;9;Rue Bain;;93170;Bagnolet;93, Seine-Saint-Denis, Île-de-France;93006
IDF9304159;PARIS (119 rue de);93063;48.88396;2.433569;Rue de Paris 93230 Romainville;0.55;street;93063_XXXX_f8952f;;Rue de Paris;;93230;Romainville;93, Seine-Saint-Denis, Île-de-France;93063
IDF9305113;VERDUN (rue de);93013;48.930548;2.415856;Rue de Verdun 93350 Le Bourget;0.73;street;93013_9620_d2e62d;;Rue de Verdun;;93350;Le Bourget;93, Seine-Saint-Denis, Île-de-France;93013
IDF9305114;BATIGNOLLES (164 et 170 avenue des);93070;48.910998;2.339115;Avenue des Marronniers 93400 Saint-Ouen-sur-Seine;0.22;street;93070_XXXX_d5cab8;;Avenue des Marronniers;;93400;Saint-Ouen-sur-Seine;93, Seine-Saint-Denis, Île-de-France;93070
IDF9305116;FLANDRE (179 route de);93027;48.929414;2.403793;Rue de la Prévôté 93120 La Courneuve;0.23;street;93027_7174_d60f8f;;Rue de la Prévôté;;93120;La Courneuve;93, Seine-Saint-Denis, Île-de-France;93027
IDF9305120;FLANDRE (33 rue de) actuelle avenue de la DIVISION LECLERC;93013;48.932288;2.422845;33 Avenue de la Division Leclerc 93350 Le Bourget;0.53;housenumber;ADRNIVX_0000000268182903;33;Avenue de la Division Leclerc;;93350;Le Bourget;93, Seine-Saint-Denis, Île-de-France;93013
IDF9305126;VERDUN (rue de);93013;48.930548;2.415856;Rue de Verdun 93350 Le Bourget;0.73;street;93013_9620_d2e62d;;Rue de Verdun;;93350;Le Bourget;93, Seine-Saint-Denis, Île-de-France;93013
IDF9305127;EDOUARD VAILLANT (rue);93013;48.9363;2.433351;Rue Édouard Vaillant 93350 Le Bourget;0.8;street;93013_3130_bb7e38;;Rue Édouard Vaillant;;93350;Le Bourget;93, Seine-Saint-Denis, Île-de-France;93013
IDF9305130;BOURGET (avenue du);93029;48.934969;2.448681;Avenue Turgot 93700 Drancy;0.37;street;93029_XXXX_3a6e87;;Avenue Turgot;;93700;Drancy;93, Seine-Saint-Denis, Île-de-France;93029
IDF9305131;NOISY-LE-SEC (180 rue de);93045;48.877101;2.419184;Rue de Noisy le Sec 93260 Les Lilas;0.66;street;93045_6650_5a26b9;;Rue de Noisy le Sec;;93260;Les Lilas;93, Seine-Saint-Denis, Île-de-France;93045
IDF9305218;NOUVELLE FRANCE (25 rue de la);93048;48.86786;2.462555;25 Rue de la Nouvelle France 93100 Montreuil;0.83;housenumber;ADRNIVX_0000002009380293;25;Rue de la Nouvelle France;;93100;Montreuil;93, Seine-Saint-Denis, Île-de-France;93048
IDF9305219;NOUVELLE FRANCE (24 - 26 rue de la);93048;48.867902;2.4622;26 Rue de la Nouvelle France 93100 Montreuil;0.76;housenumber;ADRNIVX_0000000348707622;26;Rue de la Nouvelle France;;93100;Montreuil;93, Seine-Saint-Denis, Île-de-France;93048
IDF9305234;DOCKS de SAINT-OUEN;93070;48.908412;2.322872;DOCKS DE SAINT-OUEN 93400 Saint-Ouen-sur-Seine;0.91;street;93070_XXXX_5fc3b0;;DOCKS DE SAINT-OUEN;;93400;Saint-Ouen-sur-Seine;93, Seine-Saint-Denis, Île-de-France;93070
IDF9302964;PANORAMA (avenue du);93063;48.8771;2.449738;Avenue du Docteur Fernand Lamaze 93230 Romainville;0.31;street;93063_XXXX_0685d1;;Avenue du Docteur Fernand Lamaze;;93230;Romainville;93, Seine-Saint-Denis, Île-de-France;93063
IDF9305258;DOCKS de SAINT-OUEN;93070;48.908412;2.322872;DOCKS DE SAINT-OUEN 93400 Saint-Ouen-sur-Seine;0.91;street;93070_XXXX_5fc3b0;;DOCKS DE SAINT-OUEN;;93400;Saint-Ouen-sur-Seine;93, Seine-Saint-Denis, Île-de-France;93070
IDF9305262;NATIONALE (38 route);93057;48.906585;2.506909;38 Allée Robillard 93320 Les Pavillons-sous-Bois;0.24;housenumber;ADRNIVX_0000000268247030;38;Allée Robillard;;93320;Les Pavillons-sous-Bois;93, Seine-Saint-Denis, Île-de-France;93057
IDF9302967;MEAUX (26 rue de);93063;48.884484;2.434905;26 Rue de Paris 93230 Romainville;0.43;housenumber;ADRNIVX_0000000268289202;26;Rue de Paris;;93230;Romainville;93, Seine-Saint-Denis, Île-de-France;93063
IDF9305011;VERDUN (rue de);93013;48.930548;2.415856;Rue de Verdun 93350 Le Bourget;0.73;street;93013_9620_d2e62d;;Rue de Verdun;;93350;Le Bourget;93, Seine-Saint-Denis, Île-de-France;93013
IDF9305018;VERDUN (rue de);93013;48.930548;2.415856;Rue de Verdun 93350 Le Bourget;0.73;street;93013_9620_d2e62d;;Rue de Verdun;;93350;Le Bourget;93, Seine-Saint-Denis, Île-de-France;93013
IDF9305023;GRANDE CEINTURE (rue de la);93072;48.958905;2.378646;Place de la Grande Ceinture 93240 Stains;0.65;street;93072_XXXX_49da09;;Place de la Grande Ceinture;;93240;Stains;93, Seine-Saint-Denis, Île-de-France;93072
IDF9305024;EDOUARD VAILLANT (rue);93010;48.895197;2.487753;Rue Édouard Vaillant 93140 Bondy;0.8;street;93010_3115_db3ee7;;Rue Édouard Vaillant;;93140;Bondy;93, Seine-Saint-Denis, Île-de-France;93010
IDF9305028;DANTON (rue);93061;48.884468;2.406968;Rue Danton 93310 Le Pré-Saint-Gervais;0.67;street;93061_2520_2dd458;;Rue Danton;;93310;Le Pré-Saint-Gervais;93, Seine-Saint-Denis, Île-de-France;93061
IDF9305037;EDOUARD VAILLANT (rue);93010;48.895197;2.487753;Rue Édouard Vaillant 93140 Bondy;0.8;street;93010_3115_db3ee7;;Rue Édouard Vaillant;;93140;Bondy;93, Seine-Saint-Denis, Île-de-France;93010
IDF9304946;FRANÇOIS DEBERGUE (rue);93048;48.857908;2.438554;Rue François Debergue 93100 Montreuil;0.8;street;93048_3580_c805d8;;Rue François Debergue;;93100;Montreuil;93, Seine-Saint-Denis, Île-de-France;93048
IDF9305041;TIR (42 rue du);93048;48.869456;2.438719;42 Rue du Midi 93100 Montreuil;0.5;housenumber;ADRNIVX_0000000268317158;42;Rue du Midi;;93100;Montreuil;93, Seine-Saint-Denis, Île-de-France;93048
IDF9305044;SERGENT GODEFROY (rue du);93048;48.854026;2.43153;Rue du Sergent Godefroy 93100 Montreuil;0.81;street;93048_8535_d60ee8;;Rue du Sergent Godefroy;;93100;Montreuil;93, Seine-Saint-Denis, Île-de-France;93048
IDF9305045;SERGENT BOBILLOT (rue du);93048;48.854321;2.433572;Rue du Sergent Bobillot 93100 Montreuil;0.82;street;93048_8530_dfbeb7;;Rue du Sergent Bobillot;;93100;Montreuil;93, Seine-Saint-Denis, Île-de-France;93048
IDF9305048;ROULETTES (rue des);93048;48.861168;2.43224;Rue des Roulettes 93100 Montreuil;0.87;street;93048_8275_90c647;;Rue des Roulettes;;93100;Montreuil;93, Seine-Saint-Denis, Île-de-France;93048
IDF9305053;ROSIERS (6 impasse des);93048;48.869434;2.461718;6 Impasse des Moulins 93100 Montreuil;0.44;housenumber;ADRNIVX_0000002009380281;6;Impasse des Moulins;;93100;Montreuil;93, Seine-Saint-Denis, Île-de-France;93048
IDF9305069;GONESSE (route de) actuelle avenue de STALINGRAD;93072;;;;;;;;;;;;;
IDF9304942;BOISSIERE (297 boulevard de la);93048;48.877193;2.462721;Boulevard de la Boissière 93100 Montreuil;0.78;street;93048_XXXX_35d85b;;Boulevard de la Boissière;;93100;Montreuil;93, Seine-Saint-Denis, Île-de-France;93048
IDF9304943;DELAUNAY (12 cité);93048;48.857782;2.462331;12 Nouvelle Cité de Tillemont 93100 Montreuil;0.25;housenumber;ADRNIVX_0000000268335718;12;Nouvelle Cité de Tillemont;;93100;Montreuil;93, Seine-Saint-Denis, Île-de-France;93048
IDF9304944;FONTAINE-des-SOUCIS (ruelle de la);93048;48.862984;2.449408;Rue des Soucis 93100 Montreuil;0.39;street;93048_8570_f46278;;Rue des Soucis;;93100;Montreuil;93, Seine-Saint-Denis, Île-de-France;93048
IDF9304945;FRANCISCO FERRER (rue);93048;48.857148;2.446923;Rue Francisco Ferrer 93100 Montreuil;0.8;street;93048_3570_f351ce;;Rue Francisco Ferrer;;93100;Montreuil;93, Seine-Saint-Denis, Île-de-France;93048
IDF9304947;FRISEES (19 rue des);93048;48.874423;2.456607;19 Rue des Oseraies 93100 Montreuil;0.47;housenumber;ADRNIVX_0000000268307390;19;Rue des Oseraies;;93100;Montreuil;93, Seine-Saint-Denis, Île-de-France;93048
IDF9304948;GASTON LAURIAU (rue);93048;48.858369;2.447259;Rue Gaston Lauriau 93100 Montreuil;0.79;street;93048_4150_ceaff8;;Rue Gaston Lauriau;;93100;Montreuil;93, Seine-Saint-Denis, Île-de-France;93048
IDF9304949;HOCHE (rue);93048;48.863973;2.434778;Rue Hoche 93100 Montreuil;0.66;street;93048_4460_07960f;;Rue Hoche;;93100;Montreuil;93, Seine-Saint-Denis, Île-de-France;93048
IDF9304951;JEAN LOLIVE (rue);93048;48.867671;2.429643;Rue Jean Lolive 93100 Montreuil;0.76;street;93048_4756_007dfd;;Rue Jean Lolive;;93100;Montreuil;93, Seine-Saint-Denis, Île-de-France;93048
IDF9304953;LECLAIRE (16 rue);93048;48.854576;2.420897;16 Rue Voltaire 93100 Montreuil;0.43;housenumber;ADRNIVX_0000000268339809;16;Rue Voltaire;;93100;Montreuil;93, Seine-Saint-Denis, Île-de-France;93048
IDF9304959;FLANDRE (125 route de) actuelle avenue de la DIVISION LECLERC;93013;48.938936;2.429515;125 Avenue de la Division Leclerc 93350 Le Bourget;0.52;housenumber;ADRNIVX_0000000268166409;125;Avenue de la Division Leclerc;;93350;Le Bourget;93, Seine-Saint-Denis, Île-de-France;93013
IDF9302963;ROUTE NATIONALE 3;93063;;;;;;;;;;;;;
IDF9305075;BONDY (202 rue de);93027;48.918441;2.410751;Rue de Bobigny 93120 La Courneuve;0.33;street;93027_0660_65b383;;Rue de Bobigny;;93120;La Courneuve;93, Seine-Saint-Denis, Île-de-France;93027
IDF9305076;JEAN JAURES (boulevard);93070;48.913923;2.336124;Boulevard Jean Jaurès 93400 Saint-Ouen-sur-Seine;0.81;street;93070_XXXX_2b831c;;Boulevard Jean Jaurès;;93400;Saint-Ouen-sur-Seine;93, Seine-Saint-Denis, Île-de-France;93070
IDF9305078;CLICHY (14 rue de);93070;48.908274;2.319575;14 Rue de Clichy 93400 Saint-Ouen-sur-Seine;0.76;housenumber;ADRNIVX_0000000268241207;14;Rue de Clichy;;93400;Saint-Ouen-sur-Seine;93, Seine-Saint-Denis, Île-de-France;93070
IDF9305084;VERDUN (rue de);93013;48.930548;2.415856;Rue de Verdun 93350 Le Bourget;0.73;street;93013_9620_d2e62d;;Rue de Verdun;;93350;Le Bourget;93, Seine-Saint-Denis, Île-de-France;93013
IDF9503686;?;95625;;;;;;;;;;;;;
IDF9503687;?;95625;;;;;;;;;;;;;
IDF9500038;Gué, 1 rue du;95316;49.079026;2.442961;1 Rue du Gué 95850 Jagny-sous-Bois;0.63;housenumber;ADRNIVX_0000000350702227;1;Rue du Gué;;95850;Jagny-sous-Bois;95, Val-d'Oise, Île-de-France;95316
IDF9500521;?;95487;;;;;;;;;;;;;
IDF9500522;?;95487;;;;;;;;;;;;;
IDF9500011;VC n°4;95253;;;;;;;;;;;;;
IDF9500012;Gisors, 17 rue de Gisors;95142;49.160243;1.935308;17 Rue de Gisors 95750 Chars;0.62;housenumber;ADRNIVX_0000002007436143;17;Rue de Gisors;;95750;Chars;95, Val-d'Oise, Île-de-France;95142
IDF9500021;?;95489;;;;;;;;;;;;;
IDF9500107;?;95424;;;;;;;;;;;;;
IDF9500108;?;95424;;;;;;;;;;;;;
IDF9500109;?;95424;;;;;;;;;;;;;
IDF9500115;Les Franches, H.L.M. de la Z.A.C.;95424;;;;;;;;;;;;;
IDF9500118;?;95555;;;;;;;;;;;;;
IDF9500124;Nationale 1, Route;95427;48.959567;2.328684;1 Route de Saint-Leu 95360 Montmagny;0.27;housenumber;ADRNIVX_0000000350506163;1;Route de Saint-Leu;;95360;Montmagny;95, Val-d'Oise, Île-de-France;95427
IDF9500134;RN 14;95488;;;;;;;;;;;;;
IDF9500523;?;95487;;;;;;;;;;;;;
IDF9500146;?;95582;;;;;;;;;;;;;
IDF9500148;Belle Vue, rue de;95582;48.968532;2.270171;Rue Robert Bellec 95110 Sannois;0.33;street;95582_1820_391da2;;Rue Robert Bellec;;95110;Sannois;95, Val-d'Oise, Île-de-France;95582
IDF9500156;?;95598;;;;;;;;;;;;;
IDF9500157;?;95607;;;;;;;;;;;;;
IDF9500160;?;95607;;;;;;;;;;;;;
IDF9500161;?;95607;;;;;;;;;;;;;
IDF9500628;Isle-Adam, route de l';95436;49.131985;2.267436;Rue de l'Isle Adam 95260 Mours;0.56;street;95436_XXXX_6a4907;;Rue de l'Isle Adam;;95260;Mours;95, Val-d'Oise, Île-de-France;95436
IDF9500627;Grande communication, chemin de la: N°12;95394;49.051643;2.189008;Chemin de la Haise 95540 Méry-sur-Oise;0.25;street;95394_XXXX_856500;;Chemin de la Haise;;95540;Méry-sur-Oise;95, Val-d'Oise, Île-de-France;95394
IDF9500593;Pontoise, 3 rue de;95052;49.143295;2.294909;Rue de Senlis 95260 Beaumont-sur-Oise;0.38;street;95052_0745_8c55a9;;Rue de Senlis;;95260;Beaumont-sur-Oise;95, Val-d'Oise, Île-de-France;95052
IDF9500596;Jussienne, 13 rue de la;95052;49.144372;2.287197;13 Rue Basse de la Vallée 95260 Beaumont-sur-Oise;0.38;housenumber;ADRNIVX_0000002007440353;13;Rue Basse de la Vallée;;95260;Beaumont-sur-Oise;95, Val-d'Oise, Île-de-France;95052
IDF9500629;Beaumont à l'Isle-Adam, route de;95436;49.131985;2.267436;Rue de l'Isle Adam 95260 Mours;0.43;street;95436_XXXX_6a4907;;Rue de l'Isle Adam;;95260;Mours;95, Val-d'Oise, Île-de-France;95436
IDF9500630;Mandelles, chemin de;95456;49.133595;2.330103;Chemin du Fond des Vaux 95270 Noisy-sur-Oise;0.35;street;95456_XXXX_91ab2e;;Chemin du Fond des Vaux;;95270;Noisy-sur-Oise;95, Val-d'Oise, Île-de-France;95456
IDF9500186;?;95051;;;;;;;;;;;;;
IDF9500210;Grouettes, Les;95488;49.024479;2.146663;Sente des Grouettes 95480 Pierrelaye;0.46;street;95488_XXXX_ff8554;;Sente des Grouettes;;95480;Pierrelaye;95, Val-d'Oise, Île-de-France;95488
IDF9500212;?;95489;;;;;;;;;;;;;
IDF9500215;?;95369;;;;;;;;;;;;;
IDF9500241;?;95210;;;;;;;;;;;;;
IDF9500234;RN 909;95199;49.038497;2.31517;Route Départementale 909 95330 Domont;0.12;street;95199_XXXX_e3dd01;;Route Départementale 909;;95330;Domont;95, Val-d'Oise, Île-de-France;95199
IDF9500246;?;95427;;;;;;;;;;;;;
IDF9500254;Paris, 61 avenue de;95428;49.005226;2.31715;61 Avenue de Domont 95160 Montmorency;0.44;housenumber;ADRNIVX_0000000350553404;61;Avenue de Domont;;95160;Montmorency;95, Val-d'Oise, Île-de-France;95428
IDF9500308;?;95199;;;;;;;;;;;;;
IDF9500309;?;95199;;;;;;;;;;;;;
IDF9500310;?;95199;;;;;;;;;;;;;
IDF9500457;?;95428;;;;;;;;;;;;;
IDF9500417;?;95252;;;;;;;;;;;;;
IDF9500449;Préparation militaire, Terrain de;95014;;;;;;;;;;;;;
IDF9500466;?;95199;;;;;;;;;;;;;
IDF9500467;?;95199;;;;;;;;;;;;;
IDF9500474;?;95219;;;;;;;;;;;;;
IDF9500479;?;95252;;;;;;;;;;;;;
IDF9500487;?;95428;;;;;;;;;;;;;
IDF9500490;RD 14;95488;49.003806;2.176542;Boulevard du Havre 95220 Pierrelaye;0.1;street;95488_XXXX_198d77;;Boulevard du Havre;;95220;Pierrelaye;95, Val-d'Oise, Île-de-France;95488
IDF9500551;?;95313;;;;;;;;;;;;;
IDF9500493;?;95488;;;;;;;;;;;;;
IDF9500495;?;95598;;;;;;;;;;;;;
IDF9500497;?;95555;;;;;;;;;;;;;
IDF9500505;Port, Chemin du  (RN1);95487;49.153541;2.289262;Rue du Chemin Vert 95340 Persan;0.42;street;95487_0147_c0dede;;Rue du Chemin Vert;;95340;Persan;95, Val-d'Oise, Île-de-France;95487
IDF9500506;Pontoise, 129 rue de;95058;49.158794;2.304827;Rue de l'Oise 95340 Bernes-sur-Oise;0.39;street;95058_XXXX_d1cc7d;;Rue de l'Oise;;95340;Bernes-sur-Oise;95, Val-d'Oise, Île-de-France;95058
IDF9500520;?;95487;;;;;;;;;;;;;
IDF9500527;Double, 46 rue;95487;49.156279;2.273787;46 Rue Léon Foucault 95340 Persan;0.32;housenumber;ADRNIVX_0000000350722405;46;Rue Léon Foucault;;95340;Persan;95, Val-d'Oise, Île-de-France;95487
IDF9500528;?;95487;;;;;;;;;;;;;
IDF9500529;?;95487;;;;;;;;;;;;;
IDF9500531;Thibault 8 rue;95487;49.155679;2.272447;8 Rue Léon Foucault 95340 Persan;0.27;housenumber;ADRNIVX_0000000350722371;8;Rue Léon Foucault;;95340;Persan;95, Val-d'Oise, Île-de-France;95487
IDF9500541;?;95487;;;;;;;;;;;;;
IDF9500580;?;95637;;;;;;;;;;;;;
IDF9500581;Viarmes, route de;95026;49.126604;2.357874;Chemin de la Forêt à Viarmes 95270 Asnières-sur-Oise;0.25;street;95026_XXXX_b239b8;;Chemin de la Forêt à Viarmes;;95270;Asnières-sur-Oise;95, Val-d'Oise, Île-de-France;95026
IDF9500584;Gouvichy-Baillon, chemin de;95026;49.149977;2.405496;Parc et Chateau de Baillon 95270 Asnières-sur-Oise;0.26;street;95026_B063_7de61f;;Parc et Chateau de Baillon;;95270;Asnières-sur-Oise;95, Val-d'Oise, Île-de-France;95026
IDF9305248;VICTOR HUGO (20 avenue);93001;48.90838;2.377614;Avenue Victor Hugo 93300 Aubervilliers;0.68;street;93001_XXXX_c939e4;;Avenue Victor Hugo;;93300;Aubervilliers;93, Seine-Saint-Denis, Île-de-France;93001
IDF9301656;ABATTOIR (chemin de l');93001;48.917335;2.372624;Chemin de l'Échange 93300 Aubervilliers;0.39;street;93001_XXXX_fc04c3;;Chemin de l'Échange;;93300;Aubervilliers;93, Seine-Saint-Denis, Île-de-France;93001
IDF9301666;LATERAL (chemin);93001;48.921345;2.371963;Chemin Latéral Nord 93300 Aubervilliers;0.63;street;93001_XXXX_6ff6d4;;Chemin Latéral Nord;;93300;Aubervilliers;93, Seine-Saint-Denis, Île-de-France;93001
IDF9301667;LATERAL (17 chemin);93001;48.921345;2.371963;Chemin Latéral Nord 93300 Aubervilliers;0.55;street;93001_XXXX_6ff6d4;;Chemin Latéral Nord;;93300;Aubervilliers;93, Seine-Saint-Denis, Île-de-France;93001
IDF9301672;ROSES (22 villa des);93001;48.911274;2.394945;Square des Roses 93300 Aubervilliers;0.32;street;93001_XXXX_20eee7;;Square des Roses;;93300;Aubervilliers;93, Seine-Saint-Denis, Île-de-France;93001
IDF9301673;"PANTIN (75 route de) act. avenue de la REPUBLIQUE ; FLANDRE (175 route de) act. avenue JEAN JAURES";93001;;;;;;;;;;;;;
IDF9305081;VICTOR HUGO (6 boulevard);93001;48.91508;2.381381;6 Boulevard Anatole France 93300 Aubervilliers;0.32;housenumber;ADRNIVX_0000000268223963;6;Boulevard Anatole France;;93300;Aubervilliers;93, Seine-Saint-Denis, Île-de-France;93001
IDF9503620;HUTTE, 1 RUE DE LA;95658;49.074091;1.926008;Rue de la Comte 95450 Vigny;0.4;street;95658_0126_f4f0d5;;Rue de la Comte;;95450;Vigny;95, Val-d'Oise, Île-de-France;95658
IDF9504222;?;95500;;;;;;;;;;;;;
IDF7800534;Gaillon (quartier de);78172;48.991895;2.114321;Quai de Gaillon 78700 Conflans-Sainte-Honorine;0.47;street;78172_1170_760dbb;;Quai de Gaillon;;78700;Conflans-Sainte-Honorine;78, Yvelines, Île-de-France;78172
IDF7800095;rue ?;78034;48.842042;1.817413;Grande Rue 78770 Auteuil;0.3;street;78034_XXXX_91b6d8;;Grande Rue;;78770;Auteuil;78, Yvelines, Île-de-France;78034
IDF7800442;?;78165;;;;;;;;;;;;;
IDF7800107;?;78050;;;;;;;;;;;;;
IDF7800109;?;78062;;;;;;;;;;;;;
IDF7800477;?;78168;;;;;;;;;;;;;
IDF7800482;RN 10;78168;48.7471;1.922594;Route Nationale 10 78310 Coignières;0.1;street;78168_XXXX_d93c99;;Route Nationale 10;;78310;Coignières;78, Yvelines, Île-de-France;78168
IDF7800492;Rambouillet (80, route de) (RN 10);78168;48.7471;1.922594;Route Nationale 10 78310 Coignières;0.23;street;78168_XXXX_d93c99;;Route Nationale 10;;78310;Coignières;78, Yvelines, Île-de-France;78168
IDF7800163;Pieu (chemin du );78090;48.9724;1.912707;Chemin de la Comtesse 78410 Bouafle;0.28;street;78090_XXXX_cf87b8;;Chemin de la Comtesse;;78410;Bouafle;78, Yvelines, Île-de-France;78090
IDF7800166;Pleïades (rue des);78090;48.962379;1.905719;Rue des 3 Corneilles 78410 Bouafle;0.37;street;78090_XXXX_14a6ce;;Rue des 3 Corneilles;;78410;Bouafle;78, Yvelines, Île-de-France;78090
IDF7800175;chaussée de Mesmes;78092;48.869343;2.141632;Île de la Chaussée 78380 Bougival;0.44;street;78092_0170_49dde6;;Île de la Chaussée;;78380;Bougival;78, Yvelines, Île-de-France;78092
IDF7800177;Alliés (4, place des);78104;48.944768;1.716925;4 Place des Alliés 78930 Breuil-Bois-Robert;0.77;housenumber;ADRNIVX_0000000269397432;4;Place des Alliés;;78930;Breuil-Bois-Robert;78, Yvelines, Île-de-France;78104
IDF7800182;CVO reliant Saint-Illiers-la-Ville au CD 14;78107;;;;;;;;;;;;;
IDF7800008;Trouvé (107, rue Pierre);78003;48.517079;1.840627;107 Rue Pierre Trouve 78660 Ablis;0.79;housenumber;ADRNIVX_0000000269641742;107;Rue Pierre Trouve;;78660;Ablis;78, Yvelines, Île-de-France;78003
IDF7800009;RN 191;78003;;;;;;;;;;;;;
IDF7800213;Closeaux (chemin des);78118;48.992883;1.680366;Rue des Closeaux 78200 Buchelay;0.5;street;78118_0150_f988ce;;Rue des Closeaux;;78200;Buchelay;78, Yvelines, Île-de-France;78118
IDF7800296;avenue de Versailles;78126;48.840508;2.130951;Avenue Lucien René Duchesne 78170 La Celle-Saint-Cloud;0.93;street;78126_XXXX_3edc85;;Avenue Lucien René Duchesne;;78170;La Celle-Saint-Cloud;78, Yvelines, Île-de-France;78126
IDF7800299;route de Versailles (RN 311 A);78126;48.840508;2.130951;Avenue Lucien René Duchesne 78170 La Celle-Saint-Cloud;0.4;street;78126_XXXX_3edc85;;Avenue Lucien René Duchesne;;78170;La Celle-Saint-Cloud;78, Yvelines, Île-de-France;78126
IDF7800300;131, route de Versailles (RN 311 A);78126;48.840508;2.130951;Avenue Lucien René Duchesne 78170 La Celle-Saint-Cloud;0.36;street;78126_XXXX_3edc85;;Avenue Lucien René Duchesne;;78170;La Celle-Saint-Cloud;78, Yvelines, Île-de-France;78126
IDF7800310;?;78133;;;;;;;;;;;;;
IDF7800025;?;78003;;;;;;;;;;;;;
IDF7800331;?;78138;;;;;;;;;;;;;
IDF7800332;?;78138;;;;;;;;;;;;;
IDF7800601;rue ?;78208;48.774615;1.954838;Rue Rose 78990 Élancourt;0.4;street;78208_0670_89fcfb;;Rue Rose;;78990;Élancourt;78, Yvelines, Île-de-France;78208
IDF7800589;rue ?;78193;48.704421;1.985246;Grande Rue 78720 Dampierre-en-Yvelines;0.3;street;78193_XXXX_e6ff14;;Grande Rue;;78720;Dampierre-en-Yvelines;78, Yvelines, Île-de-France;78193
IDF7800591;Chamaserie (1, 2, 3, rue de la);78206;48.96989;1.919909;3 Rue de la Chamoiserie 78920 Ecquevilly;0.55;housenumber;ADRNIVX_0000000269374850;3;Rue de la Chamoiserie;;78920;Ecquevilly;78, Yvelines, Île-de-France;78206
IDF7800592;rue ?;78206;48.95229;1.91815;Rue Bel-Air 78920 Ecquevilly;0.28;street;78206_XXXX_a61b51;;Rue Bel-Air;;78920;Ecquevilly;78, Yvelines, Île-de-France;78206
IDF7800593;Fontenelles (rue des);78206;48.949711;1.931764;Rue des Fontenelles 78920 Ecquevilly;0.78;street;78206_0085_1460e4;;Rue des Fontenelles;;78920;Ecquevilly;78, Yvelines, Île-de-France;78206
IDF7800596;Romainville (chemin de);78206;48.937448;1.915746;Cht de Romainville 78920 Ecquevilly;0.53;locality;78206_XXXX_1682f1;;Cht de Romainville;;78920;Ecquevilly;78, Yvelines, Île-de-France;78206
IDF7800607;?;78208;;;;;;;;;;;;;
IDF7800611;?;78208;;;;;;;;;;;;;
IDF7800042;rue ?;78010;48.914976;1.918989;Grande Rue 78580 Les Alluets-le-Roi;0.3;street;78010_XXXX_250009;;Grande Rue;;78580;Les Alluets-le-Roi;78, Yvelines, Île-de-France;78010
IDF7800043;rue ?;78010;48.914976;1.918989;Grande Rue 78580 Les Alluets-le-Roi;0.3;street;78010_XXXX_250009;;Grande Rue;;78580;Les Alluets-le-Roi;78, Yvelines, Île-de-France;78010
IDF7800333;?;78138;;;;;;;;;;;;;
IDF7800656;?;78242;;;;;;;;;;;;;
IDF7800616;halage (chemin de);78217;48.941519;1.812626;Chemin de la Côte Made 78680 Épône;0.44;street;78217_XXXX_8a8e2b;;Chemin de la Côte Made;;78680;Épône;78, Yvelines, Île-de-France;78217
IDF7800617;Rambouillet (route de) (RN 191);78217;;;;;;;;;;;;;
IDF7800621;RN 191;78217;;;;;;;;;;;;;
IDF7800623;CR14;78217;;;;;;;;;;;;;
IDF7800624;CR 39;78217;;;;;;;;;;;;;
IDF7800630;rue ?;78220;48.719954;1.895812;Rue de Rome 78690 Les Essarts-le-Roi;0.28;street;78220_0555_892308;;Rue de Rome;;78690;Les Essarts-le-Roi;78, Yvelines, Île-de-France;78220
IDF7800631;rue ?;78220;48.719954;1.895812;Rue de Rome 78690 Les Essarts-le-Roi;0.28;street;78220_0555_892308;;Rue de Rome;;78690;Les Essarts-le-Roi;78, Yvelines, Île-de-France;78220
IDF7800639;CR 2 dit de Pontoise et CR 8 dit de Villette;78227;;;;;;;;;;;;;
IDF7800655;?;78242;;;;;;;;;;;;;
IDF7800053;?;78015;;;;;;;;;;;;;
IDF7800666;CR 22;78251;;;;;;;;;;;;;
IDF7800244;2, route de Triel;78123;48.940445;2.01378;Rue de la Rêverie 78955 Carrières-sous-Poissy;0.27;street;78123_0310_00b340;;Rue de la Rêverie;;78955;Carrières-sous-Poissy;78, Yvelines, Île-de-France;78123
IDF7800252;Argenteuil (13, rue d');78124;48.903889;2.170907;Résidence le Val d'Églantine 78420 Carrières-sur-Seine;0.14;street;78124_XXXX_bbda0c;;Résidence le Val d'Églantine;;78420;Carrières-sur-Seine;78, Yvelines, Île-de-France;78124
IDF7700411;Zone industrielle;77493;;;;;;;;;;;;;
IDF7702474;Grande, rue;77516;48.343924;2.898415;Grande Rue 77130 Ville-Saint-Jacques;0.91;street;77516_XXXX_78bd82;;Grande Rue;;77130;Ville-Saint-Jacques;77, Seine-et-Marne, Île-de-France;77516
IDF7700003;Carrière de pierre à  plâtre d'Annet (carrière de gypse);77005;48.916915;2.710001;Rue du Gypse 77410 Annet-sur-Marne;0.21;street;77005_0104_9bdf21;;Rue du Gypse;;77410;Annet-sur-Marne;77, Seine-et-Marne, Île-de-France;77005
IDF7700006;Grande, 25 rue;77005;48.92357;2.718656;Rue du Général de Gaulle 77410 Annet-sur-Marne;0.69;street;77005_0101_4f86e4;;Rue du Général de Gaulle;;77410;Annet-sur-Marne;77, Seine-et-Marne, Île-de-France;77005
IDF7700017;un des champs du propiétaire.;77042;48.824053;3.142474;Résidence du Champ Pilard 77169 Boissy-le-Châtel;0.34;locality;77042_XXXX_9618cc;;Résidence du Champ Pilard;;77169;Boissy-le-Châtel;77, Seine-et-Marne, Île-de-France;77042
IDF7700022;Paris, 18 rue de;77055;48.882348;2.623699;18 Rue des Bois 77177 Brou-sur-Chantereine;0.51;housenumber;ADRNIVX_0000000271638487;18;Rue des Bois;;77177;Brou-sur-Chantereine;77, Seine-et-Marne, Île-de-France;77055
IDF7700025;RN 33;77057;;;;;;;;;;;;;
IDF7700028;Dans la cour de son établissement.;77070;;;;;;;;;;;;;
IDF7700039;Magasin d'épicerie;77084;;;;;;;;;;;;;
IDF7700040;dans un cavage appartenant aux établissement Poliet et Chausson;77108;;;;;;;;;;;;;
IDF7700041;A proximité des baraquements installés près du pont à reconstruire.;77084;;;;;;;;;;;;;
IDF7700042;Ussy, rue d';77084;48.958489;3.026833;Rue d'Ussy 77660 Changis-sur-Marne;0.66;street;77084_XXXX_a2a862;;Rue d'Ussy;;77660;Changis-sur-Marne;77, Seine-et-Marne, Île-de-France;77084
IDF7700043;Changis, route de;77084;48.957711;3.011219;Les Hauts de Changis 77660 Changis-sur-Marne;0.44;locality;77084_XXXX_40c577;;Les Hauts de Changis;;77660;Changis-sur-Marne;77, Seine-et-Marne, Île-de-France;77084
IDF7700046;Moulin de Chauffry, lieu-dit le;77106;;;;;;;;;;;;;
IDF7700053;"territoire de la commune du Pin; à gauche de la route de Chelles au Pin";77108;48.901352;2.609408;Chemin de l'Arche du Pin 77500 Chelles;0.28;street;77108_XXXX_94635e;;Chemin de l'Arche du Pin;;77500;Chelles;77, Seine-et-Marne, Île-de-France;77108
IDF7700055;RD 34;77108;;;;;;;;;;;;;
IDF7700060;Claye, 14 rue de;77005;48.925276;2.720576;14 Rue de Marne 77410 Annet-sur-Marne;0.43;housenumber;ADRNIVX_0000000332109166;14;Rue de Marne;;77410;Annet-sur-Marne;77, Seine-et-Marne, Île-de-France;77005
IDF7700065;Mousseaux, lieu-dit les;77024;;;;;;;;;;;;;
IDF7700068;Incurables, ferme des;77094;48.941978;2.77526;Chemin des Ouches 77410 Charmentray;0.22;street;77094_XXXX_07b36e;;Chemin des Ouches;;77410;Charmentray;77, Seine-et-Marne, Île-de-France;77094
IDF7700076;Curie, 1 rue;77055;48.883295;2.629247;1 Rue Marie Curie 77177 Brou-sur-Chantereine;0.48;housenumber;ADRNIVX_0000002008895758;1;Rue Marie Curie;;77177;Brou-sur-Chantereine;77, Seine-et-Marne, Île-de-France;77055
IDF7700085;Derrière la passage à niveau 24.;77053;;;;;;;;;;;;;
IDF7700089;Bois de la justice, lieu-dit les;77048;;;;;;;;;;;;;
IDF7702434;Paris, 18 rue de;77508;48.815551;2.828006;18 Rue de Paris 77174 Villeneuve-le-Comte;0.68;housenumber;ADRNIVX_0000000354357883;18;Rue de Paris;;77174;Villeneuve-le-Comte;77, Seine-et-Marne, Île-de-France;77508
IDF7702416;Villiers, route de;77142;48.859249;2.902562;Avenue de Villiers 77580 Crécy-la-Chapelle;0.41;street;77142_XXXX_88f134;;Avenue de Villiers;;77580;Crécy-la-Chapelle;77, Seine-et-Marne, Île-de-France;77142
IDF7700131;Chanoy, Hameau le;77066;48.695819;3.348157;Le Chanoy 77320 Cerneux;0.32;street;77066_B020_5c30d6;;Le Chanoy;;77320;Cerneux;77, Seine-et-Marne, Île-de-France;77066
IDF7700132;Pascal, 4/6 avenue;77307;48.873509;2.750155;6 Rue des 4 Arpents 77144 Montévrain;0.2;housenumber;ADRNIVX_0000000271866241;6;Rue des 4 Arpents;;77144;Montévrain;77, Seine-et-Marne, Île-de-France;77307
IDF7700144;Leclerc, 38 avenue Général;77182;48.784173;3.307334;38 Avenue du Général Leclerc 77320 La Ferté-Gaucher;0.71;housenumber;ADRNIVX_0000000271756980;38;Avenue du Général Leclerc;;77320;La Ferté-Gaucher;77, Seine-et-Marne, Île-de-France;77182
IDF7700145;Obélisque, route de l';77176;48.778454;3.010028;Rue de l'Obélisque 77515 Faremoutiers;0.56;street;77176_XXXX_1443a5;;Rue de l'Obélisque;;77515;Faremoutiers;77, Seine-et-Marne, Île-de-France;77176
IDF7700151;Chelles, chemin de;77139;48.910061;2.594931;Rue des Chênes 77181 Courtry;0.29;street;77139_0240_0cb84f;;Rue des Chênes;;77181;Courtry;77, Seine-et-Marne, Île-de-France;77139
IDF7700156;Petit pont, lieu-dit le;77128;;;;;;;;;;;;;
IDF7701001;raffinerie;77053;48.691912;2.610083;Brie-Comte-Robert;0.16;municipality;77053;;Brie-Comte-Robert;;77170;Brie-Comte-Robert;77, Seine-et-Marne, Île-de-France;77053
IDF7701010;Paris, 12 rue de;77053;48.690071;2.62253;12 Rue des Merisiers 77170 Brie-Comte-Robert;0.47;housenumber;ADRNIVX_0000000271636340;12;Rue des Merisiers;;77170;Brie-Comte-Robert;77, Seine-et-Marne, Île-de-France;77053
IDF7701016;Paris, 41 rue de;77053;48.691459;2.611666;Rue des Regards 77170 Brie-Comte-Robert;0.37;street;77053_0520_bb909b;;Rue des Regards;;77170;Brie-Comte-Robert;77, Seine-et-Marne, Île-de-France;77053
IDF7701023;Paris, 41-43 rue de;77053;48.691459;2.611666;Rue des Regards 77170 Brie-Comte-Robert;0.33;street;77053_0520_bb909b;;Rue des Regards;;77170;Brie-Comte-Robert;77, Seine-et-Marne, Île-de-France;77053
IDF7701025;RN2 et RN4;77053;;;;;;;;;;;;;
IDF7701027;RN;77053;;;;;;;;;;;;;
IDF7701034;Aubepierre, ferme à;77010;48.628673;2.921328;Rue de la Ferme 77720 Aubepierre-Ozouer-le-Repos;0.38;street;77010_0083_454c27;;Rue de la Ferme;;77720;Aubepierre-Ozouer-le-Repos;77, Seine-et-Marne, Île-de-France;77010
IDF7701044;RN15, propriété de M. Baudry;77012;;;;;;;;;;;;;
IDF7701047;BORNET Ets;77010;;;;;;;;;;;;;
IDF7701049;Paris, faubourg de;77031;;;;;;;;;;;;;
IDF7701050;Paris, rue de;77031;48.679696;2.935523;Rue du Parc 77540 Bernay-Vilbert;0.36;street;77031_0132_a5ab5e;;Rue du Parc;;77540;Bernay-Vilbert;77, Seine-et-Marne, Île-de-France;77031
IDF7701051;Pays de Vaux, lieu-dit;77031;;;;;;;;;;;;;
IDF7701057;Ponceaux, lieudit Les;77032;48.707003;3.239464;Chemin des Ponceaux 77320 Beton-Bazoches;0.25;street;77032_XXXX_d88cb5;;Chemin des Ponceaux;;77320;Beton-Bazoches;77, Seine-et-Marne, Île-de-France;77032
IDF7700183;Paris, 18 rue de;77508;48.815551;2.828006;18 Rue de Paris 77174 Villeneuve-le-Comte;0.68;housenumber;ADRNIVX_0000000354357883;18;Rue de Paris;;77174;Villeneuve-le-Comte;77, Seine-et-Marne, Île-de-France;77508
IDF7700197;Corbin, lieu-dit;77257;;;;;;;;;;;;;
IDF7700203;Grande, 28 Rue;77175;48.65498;2.635087;28 Grande Rue 77166 Évry-Grégy-sur-Yerre;0.77;housenumber;ADRNIVX_0000000358429600;28;Grande Rue;;77166;Évry-Grégy-sur-Yerre;77, Seine-et-Marne, Île-de-France;77175
IDF7700214;Gare de triage;77108;48.871566;2.624055;Rue du Triage 77500 Chelles;0.44;street;77108_3491_8205a4;;Rue du Triage;;77500;Chelles;77, Seine-et-Marne, Île-de-France;77108
IDF7700220;Aire de service normale du Parc;77001;;;;;;;;;;;;;
IDF7700160;Grande, 10 rue;77358;48.98684;2.860497;10 Grande Rue 77124 Penchard;0.77;housenumber;ADRNIVX_0000000271913543;10;Grande Rue;;77124;Penchard;77, Seine-et-Marne, Île-de-France;77358
IDF7700772;RN3;77440;;;;;;;;;;;;;
IDF7700778;gare de Dammartin-Juilly-Saint-Mard, En face de la;77420;49.030209;2.698451;Route de Juilly 77230 Saint-Mard;0.37;street;77420_XXXX_d7fce5;;Route de Juilly;;77230;Saint-Mard;77, Seine-et-Marne, Île-de-France;77420
IDF7701265;gare de Lechelle, ancienne;77246;48.580309;3.386306;Rue de la Gare 77171 Léchelle;0.49;street;77246_0042_d95afb;;Rue de la Gare;;77171;Léchelle;77, Seine-et-Marne, Île-de-France;77246
IDF7701280;Fontainebleau, 128 avenue de;;43.635697;1.433312;128 Avenue de Fronton 31200 Toulouse;0.44;housenumber;ADRNIVX_0000002009765268;128;Avenue de Fronton;;31200;Toulouse;31, Haute-Garonne, Occitanie (Midi-Pyrénées);31555
IDF7701283;Lagny, 51 rue de;77517;48.899387;2.673303;51 Rue de Lagny 77410 Villevaudé;0.68;housenumber;ADRNIVX_0000000272054684;51;Rue de Lagny;;77410;Villevaudé;77, Seine-et-Marne, Île-de-France;77517
IDF7701288;Briand, 14 rue Aristide;77513;48.950099;2.869814;14 Rue Aristide Briand 77124 Villenoy;0.76;housenumber;ADRNIVX_0000000354363133;14;Rue Aristide Briand;;77124;Villenoy;77, Seine-et-Marne, Île-de-France;77513
IDF7701289;sur les terres de cultures appartenant à M. LUGAN,;77518;;;;;;;;;;;;;
IDF7701067;propriété de Mme Saint-Anceau en 1929;77039;;;;;;;;;;;;;
IDF7701068;Uselles, lieu-dit les;77039;;;;;;;;;;;;;
IDF7700227;Grande Paroisse, route de la;77210;48.386767;2.894993;Rue de la Roche 77130 La Grande-Paroisse;0.58;street;77210_0460_5f7fee;;Rue de la Roche;;77130;La Grande-Paroisse;77, Seine-et-Marne, Île-de-France;77210
IDF7700230;CD 97;77203;;;;;;;;;;;;;
IDF7700235;Sarcy, rue de;77047;48.878029;2.932201;Rue du Hameau de Sarcy 77580 Bouleurs;0.36;street;77047_0060_8a12dd;;Rue du Hameau de Sarcy;;77580;Bouleurs;77, Seine-et-Marne, Île-de-France;77047
IDF7700248;CR 6;77453;;;;;;;;;;;;;
IDF7700267;Incurables, ferme des;77094;48.941978;2.77526;Chemin des Ouches 77410 Charmentray;0.22;street;77094_XXXX_07b36e;;Chemin des Ouches;;77410;Charmentray;77, Seine-et-Marne, Île-de-France;77094
IDF7700274;Saint Sauveur, route de;77347;48.459075;3.226486;Route de Saint-Sauveur 77134 Les Ormes-sur-Voulzie;0.75;street;77347_XXXX_addf7a;;Route de Saint-Sauveur;;77134;Les Ormes-sur-Voulzie;77, Seine-et-Marne, Île-de-France;77347
IDF7700276;Oratoire, Ferme de l';77241;49.010956;2.703995;Place de l'Oratoire 77230 Juilly;0.49;street;77241_XXXX_93659f;;Place de l'Oratoire;;77230;Juilly;77, Seine-et-Marne, Île-de-France;77241
IDF7700281;Chef de ville, 21 rue;77173;49.034533;2.930421;21 Rue Chef de Ville 77139 Étrépilly;0.82;housenumber;ADRNIVX_0000000271750751;21;Rue Chef de Ville;;77139;Étrépilly;77, Seine-et-Marne, Île-de-France;77173
IDF7701318;Sens, 31 avenue de;;49.42978;1.076303;31 Avenue de Caen 76100 Rouen;0.58;housenumber;ADRNIVX_0000000272848201;31;Avenue de Caen;;76100;Rouen;76, Seine-Maritime, Normandie (Haute-Normandie);76540
IDF7701333;Vignely, 23 route de;77232;48.916921;2.813349;23 Route de Vignely 77450 Isles-lès-Villenoy;0.73;housenumber;ADRNIVX_0000000271789165;23;Route de Vignely;;77450;Isles-lès-Villenoy;77, Seine-et-Marne, Île-de-France;77232
IDF7701334;Troyes, 78 rue de;77222;48.63448;2.801624;78 Rue de Troyes 77390 Guignes;0.7;housenumber;ADRNIVX_0000000271784927;78;Rue de Troyes;;77390;Guignes;77, Seine-et-Marne, Île-de-France;77222
IDF7700298;RN 4;77192;;;;;;;;;;;;;
IDF7700310;Hubert, rue Edmond;77168;48.176577;2.867853;Rue Edmond Hubert 77620 Égreville;0.71;street;77168_0240_c5d018;;Rue Edmond Hubert;;77620;Égreville;77, Seine-et-Marne, Île-de-France;77168
IDF7700317;Carnetin, 1 rue;77155;48.888554;2.733091;1 Rue de Carnetin 77400 Dampmart;0.56;housenumber;ADRNIVX_0000000354360207;1;Rue de Carnetin;;77400;Dampmart;77, Seine-et-Marne, Île-de-France;77155
IDF7700351;Melun, 23 route de;77141;48.862557;2.855879;23 Route de Melun 77580 Coutevroult;0.71;housenumber;ADRNIVX_0000000271722439;23;Route de Melun;;77580;Coutevroult;77, Seine-et-Marne, Île-de-France;77141
IDF7700361;Garnier, 20 rue Gabriel;77076;48.504109;3.250757;20 Rue Gabriel Garnier 77650 Chalmaison;0.75;housenumber;ADRNIVX_0000000271654867;20;Rue Gabriel Garnier;;77650;Chalmaison;77, Seine-et-Marne, Île-de-France;77076
IDF7702488;Roosevelt, 42 avenue Franklin;77448;48.944325;3.114716;Avenue Franklin Roosevelt 77260 Sept-Sorts;0.69;street;77448_XXXX_828a84;;Avenue Franklin Roosevelt;;77260;Sept-Sorts;77, Seine-et-Marne, Île-de-France;77448
IDF7702491;Verdun, 66-68 avenue de;77475;48.957865;2.954248;68 Avenue de Verdun 77470 Trilport;0.64;housenumber;ADRNIVX_0000000339904905;68;Avenue de Verdun;;77470;Trilport;77, Seine-et-Marne, Île-de-France;77475
IDF7702492;Gare, 74 avenue de la;77420;49.03061;2.697512;74 Avenue de la Gare 77230 Saint-Mard;0.74;housenumber;ADRNIVX_0000000271970163;74;Avenue de la Gare;;77230;Saint-Mard;77, Seine-et-Marne, Île-de-France;77420
IDF7702504;Vauroux, 32 rue des;77210;48.387605;2.89745;32 Rue des Vauroux 77130 La Grande-Paroisse;0.72;housenumber;ADRNIVX_0000000271776283;32;Rue des Vauroux;;77130;La Grande-Paroisse;77, Seine-et-Marne, Île-de-France;77210
IDF7702531;Etang, Ferme de l';77107;48.672233;2.819453;FERME DE FOREST 77390 Chaumes-en-Brie;0.39;street;77107_0420_92ca1a;;FERME DE FOREST;;77390;Chaumes-en-Brie;77, Seine-et-Marne, Île-de-France;77107
IDF7701491;Bertaux, 153 rue;77350;48.764311;2.687234;Rue Robert Schuman 77330 Ozoir-la-Ferrière;0.22;street;77350_0697_a3711c;;Rue Robert Schuman;;77330;Ozoir-la-Ferrière;77, Seine-et-Marne, Île-de-France;77350
IDF7701367;Allendé, avenue Salvador;77152;;;;;;;;;;;;;
IDF7700805;Breget, rue de;77344;49.070991;2.81935;Rue de la Recette 77178 Oissery;0.37;street;77344_0311_1aa21e;;Rue de la Recette;;77178;Oissery;77, Seine-et-Marne, Île-de-France;77344
IDF7702461;Grande, 38 rue;77482;48.374879;2.92613;38 Grande Rue 77130 Varennes-sur-Seine;0.77;housenumber;ADRNIVX_0000000272026383;38;Grande Rue;;77130;Varennes-sur-Seine;77, Seine-et-Marne, Île-de-France;77482
IDF7702472;Atlantique, avenue de l';77229;48.748843;2.87851;Sente de la Butte Verte 77610 La Houssaye-en-Brie;0.27;street;77229_XXXX_0641e7;;Sente de la Butte Verte;;77610;La Houssaye-en-Brie;77, Seine-et-Marne, Île-de-France;77229
IDF7700451;Bray, route de;77347;48.460914;3.228525;Route de Bray 77134 Les Ormes-sur-Voulzie;0.65;street;77347_XXXX_e46c87;;Route de Bray;;77134;Les Ormes-sur-Voulzie;77, Seine-et-Marne, Île-de-France;77347
IDF7700827;Genouilly, Ferme de;77222;;;;;;;;;;;;;
IDF7701118;Gouffre, lieu-dit le;77238;;;;;;;;;;;;;
IDF7700456;Zone industrielle;77327;;;;;;;;;;;;;
IDF7700466;Liéton, 528 rue du;77320;48.8197;3.045872;528 Rue du Lieton 77120 Mouroux;0.71;housenumber;ADRNIVX_0000000271878219;528;Rue du Lieton;;77120;Mouroux;77, Seine-et-Marne, Île-de-France;77320
IDF7700469;Genevraye, route de la;77312;48.346696;2.767755;Route de Larchant 77690 Montigny-sur-Loing;0.35;street;77312_XXXX_12f692;;Route de Larchant;;77690;Montigny-sur-Loing;77, Seine-et-Marne, Île-de-France;77312
IDF7700470;RN 4;77301;;;;;;;;;;;;;
IDF7701173;"Moret, 54 route de - ancien numérotage : n°2; Moncourt-Fromonville, route départementale n°40";77302;;;;;;;;;;;;;
IDF7701498;Noues, Lieu-dit Les;77501;;;;;;;;;;;;;
IDF7701510;Grande, rue;77131;48.817589;3.093812;Impasse des Grandes Paroisses 77120 Coulommiers;0.19;street;77131_XXXX_c68dd1;;Impasse des Grandes Paroisses;;77120;Coulommiers;77, Seine-et-Marne, Île-de-France;77131
IDF7701556;Puiseaux, route de;77110;48.165458;2.659485;Route de Puiseaux 77570 Chenou;0.71;street;77110_XXXX_03ce77;;Route de Puiseaux;;77570;Chenou;77, Seine-et-Marne, Île-de-France;77110
IDF7701560;RN 4;77192;;;;;;;;;;;;;
IDF7701567;Nemours, ruelle de;77099;48.150287;2.703118;Ruelle de Nemours 77570 Château-Landon;0.72;street;77099_XXXX_7be442;;Ruelle de Nemours;;77570;Château-Landon;77, Seine-et-Marne, Île-de-France;77099
IDF7700479;Gibraltar, lieu-dit;77309;;;;;;;;;;;;;
IDF7700492;Bray, route de;77279;48.386345;3.046193;Route de Bray 77130 Marolles-sur-Seine;0.65;street;77279_XXXX_bd8053;;Route de Bray;;77130;Marolles-sur-Seine;77, Seine-et-Marne, Île-de-France;77279
IDF7700511;Héricy, 3 route d';77533;48.430565;2.7511;3 Route d'Héricy 77870 Vulaines-sur-Seine;0.75;housenumber;ADRNIVX_0000000334757913;3;Route d'Héricy;;77870;Vulaines-sur-Seine;77, Seine-et-Marne, Île-de-France;77533
IDF7700517;Fuan, 18 rue Paul;77241;49.013966;2.707659;18 Rue Paul Fuan 77230 Juilly;0.7;housenumber;ADRNIVX_0000000271794702;18;Rue Paul Fuan;;77230;Juilly;77, Seine-et-Marne, Île-de-France;77241
IDF7700882;Grand Morin, au bord de la rivière;77176;;;;;;;;;;;;;
IDF7700887;Remises, lieu-dit les;;46.694955;-0.347597;L'Audonnière 79200 Adilly;0.45;locality;79002_XXXX_11384c;;L'Audonnière;;79200;Adilly;79, Deux-Sèvres, Nouvelle-Aquitaine (Poitou-Charentes);79002
IDF7700888;Près du carrefour de la route de Gretz-sur-Loing à Montigny;77048;;;;;;;;;;;;;
IDF7700889;RN 7;77022;48.445414;2.603799;Barbizon;0.14;municipality;77022;;Barbizon;;77630;Barbizon;77, Seine-et-Marne, Île-de-France;77022
IDF7700898;Eglise, rue de l';77027;48.136016;2.474406;Place de l'Église 77890 Beaumont-du-Gâtinais;0.5;street;77027_XXXX_34cada;;Place de l'Église;;77890;Beaumont-du-Gâtinais;77, Seine-et-Marne, Île-de-France;77027
IDF7700907;RN3;77108;;;;;;;;;;;;;
IDF7700914;Paris, 34 rue de;77413;48.882917;2.849052;34 Rue de Paris 77860 Saint-Germain-sur-Morin;0.69;housenumber;ADRNIVX_0000000271966037;34;Rue de Paris;;77860;Saint-Germain-sur-Morin;77, Seine-et-Marne, Île-de-France;77413
IDF7700923;Petit fossard, lieu-dit;77305;;;;;;;;;;;;;
IDF7700564;Thiersanville n° 30;77458;48.202105;2.73678;Rue des Gauthiers 77460 Souppes-sur-Loing;0.22;street;77458_XXXX_f7dc72;;Rue des Gauthiers;;77460;Souppes-sur-Loing;77, Seine-et-Marne, Île-de-France;77458
IDF7700585;Petit Fossard, lieu dit Le;77172;;;;;;;;;;;;;
IDF7700589;RN 5 bis;77100;48.50604;2.79853;Allée du Buisson Gelon 77820 Le Châtelet-en-Brie;0.12;street;77100_XXXX_020e7b;;Allée du Buisson Gelon;;77820;Le Châtelet-en-Brie;77, Seine-et-Marne, Île-de-France;77100
IDF7701198;Pré Vonat,  Lieu-dit;77437;;;;;;;;;;;;;
IDF7701203;Fay-le-Hainaut, lieu-dit;77448;;;;;;;;;;;;;
IDF7701215;Pet au Diable, Lieu-dit Le;77389;48.521671;2.667694;Rue du Pet au Diable 77000 La Rochette;0.49;street;77389_0227_46cf25;;Rue du Pet au Diable;;77000;La Rochette;77, Seine-et-Marne, Île-de-France;77389
IDF7701219;RN 78 terrain de M. DUBUISSON;77388;;;;;;;;;;;;;
IDF7701414;RN 308;77131;;;;;;;;;;;;;
IDF7700598;Mary, route de;77257;49.021234;3.029246;Route de Mary 77440 Lizy-sur-Ourcq;0.66;street;77257_XXXX_2186d8;;Route de Mary;;77440;Lizy-sur-Ourcq;77, Seine-et-Marne, Île-de-France;77257
IDF7700606;Stade, 1 rue du;77222;48.631674;2.803326;1 Rue du Stade 77390 Guignes;0.67;housenumber;ADRNIVX_0000000271784804;1;Rue du Stade;;77390;Guignes;77, Seine-et-Marne, Île-de-France;77222
IDF7700948;Erables, 5 rue des;77393;48.681873;2.961994;5 Rue des Érables 77540 Rozay-en-Brie;0.81;housenumber;ADRNIVX_0000000271950328;5;Rue des Érables;;77540;Rozay-en-Brie;77, Seine-et-Marne, Île-de-France;77393
IDF7700949;A 280 m de l'usine rue des Forges;77181;;;;;;;;;;;;;
IDF7700960;Gare, 6 avenue de la;77405;48.907141;3.183718;6 Avenue de la Ferté-Sous-Jouarre 77750 Saint-Cyr-sur-Morin;0.43;housenumber;ADRNIVX_0000000271957365;6;Avenue de la Ferté-Sous-Jouarre;;77750;Saint-Cyr-sur-Morin;77, Seine-et-Marne, Île-de-France;77405
IDF7700981;Pepinière, lieu-dit la;77373;;;;;;;;;;;;;
IDF7701436;poste de répartition;77470;48.738636;2.760656;Rue de Paris 77220 Tournan-en-Brie;0.25;street;77470_1060_d41e55;;Rue de Paris;;77220;Tournan-en-Brie;77, Seine-et-Marne, Île-de-France;77470
IDF7701444;Meaux, route de;77270;48.865127;2.990983;Rue de Meaux 77580 Maisoncelles-en-Brie;0.38;street;77270_0118_33b211;;Rue de Meaux;;77580;Maisoncelles-en-Brie;77, Seine-et-Marne, Île-de-France;77270
IDF7701461;Villepatour, hameau de;77377;48.6959;2.743876;Villepatour 77220 Presles-en-Brie;0.46;street;77377_B078_180764;;Villepatour;;77220;Presles-en-Brie;77, Seine-et-Marne, Île-de-France;77377
IDF7701466;RODIER, 20 rue L;77359;48.476372;2.554775;Rue de l'Église 77930 Perthes;0.16;street;77359_XXXX_618fde;;Rue de l'Église;;77930;Perthes;77, Seine-et-Marne, Île-de-France;77359
IDF7701478;Villpatour, Hameau de;77377;48.6959;2.743876;Villepatour 77220 Presles-en-Brie;0.35;street;77377_B078_180764;;Villepatour;;77220;Presles-en-Brie;77, Seine-et-Marne, Île-de-France;77377
IDF7700611;Vingt-sept août 1944, 147 avenue du;77315;48.883968;2.828018;Avenue du 27 Août 1944 77450 Montry;0.46;street;77315_XXXX_680292;;Avenue du 27 Août 1944;;77450;Montry;77, Seine-et-Marne, Île-de-France;77315
IDF7700658;Bois Bailly, lieu-dit le;77083;;;;;;;;;;;;;
IDF7700663;Pelle à Four, lieu-dit la;77211;;;;;;;;;;;;;
IDF7700667;Grande, 6 rue;77142;48.871174;2.923898;6 Rue de la Grande Haie 77580 Crécy-la-Chapelle;0.41;housenumber;ADRNIVX_0000000271723661;6;Rue de la Grande Haie;;77580;Crécy-la-Chapelle;77, Seine-et-Marne, Île-de-France;77142
IDF7700675;Gare, 7 rue de la;77482;48.378486;2.94001;7 Rue de la Gare 77130 Varennes-sur-Seine;0.7;housenumber;ADRNIVX_0000000272025867;7;Rue de la Gare;;77130;Varennes-sur-Seine;77, Seine-et-Marne, Île-de-France;77482
IDF7700686;Baulnes, lieu-dit les;77142;;;;;;;;;;;;;
IDF7701487;Pont d'Argent,  Lieu-dit;77403;;;;;;;;;;;;;
IDF7700690;Thiersanville, lieu-dit Hameau de;77045;;;;;;;;;;;;;
IDF7700697;ZAC;77142;;;;;;;;;;;;;
IDF7700699;Gare, 3 rue de la;77099;48.149662;2.697206;3 Rue de la Gare 77570 Château-Landon;0.71;housenumber;ADRNIVX_0000000271670129;3;Rue de la Gare;;77570;Château-Landon;77, Seine-et-Marne, Île-de-France;77099
IDF7700701;Barauderie, 24 rue de la;77156;48.269287;2.730492;24 Rue de la Barauderie 77140 Darvault;0.76;housenumber;ADRNIVX_0000002100844489;24;Rue de la Barauderie;;77140;Darvault;77, Seine-et-Marne, Île-de-France;77156
IDF7700712;Bougligny, route de;77099;48.155198;2.694486;Route de Bougligny 77570 Château-Landon;0.73;street;77099_XXXX_eb14a4;;Route de Bougligny;;77570;Château-Landon;77, Seine-et-Marne, Île-de-France;77099
IDF7700714;Bertaux, rue;77069;48.471181;2.606064;Rue des Aubépines 77930 Chailly-en-Bière;0.17;street;77069_0015_eb8ae1;;Rue des Aubépines;;77930;Chailly-en-Bière;77, Seine-et-Marne, Île-de-France;77069
IDF7700723;Gasset, parc d'activités du;77085;;;;;;;;;;;;;
IDF7700735;Coupvray, route de;77171;48.89706;2.809513;Allée des Roses 77450 Esbly;0.18;street;77171_XXXX_12aa02;;Allée des Roses;;77450;Esbly;77, Seine-et-Marne, Île-de-France;77171
IDF7701400;BP 13 - 77120;77131;48.817007;3.097532;Rue Verte 77120 Coulommiers;0.26;street;77131_1010_604ae2;;Rue Verte;;77120;Coulommiers;77, Seine-et-Marne, Île-de-France;77131
IDF7701402;Villiers, route de;77048;48.332095;2.685248;Route de Villiers 77780 Bourron-Marlotte;0.71;street;77048_XXXX_d8f61d;;Route de Villiers;;77780;Bourron-Marlotte;77, Seine-et-Marne, Île-de-France;77048
IDF7701833;Champ Benoist, 13 route de;77379;48.555072;3.302573;13 Route de Champbenoist 77160 Provins;0.69;housenumber;ADRNIVX_0000000354437213;13;Route de Champbenoist;;77160;Provins;77, Seine-et-Marne, Île-de-France;77379
IDF7701866;Leclerc, rue du Général;77372;48.881805;2.695696;Rue du Général Leclerc 77400 Pomponne;0.75;street;77372_0320_92ee4d;;Rue du Général Leclerc;;77400;Pomponne;77, Seine-et-Marne, Île-de-France;77372
IDF7701874;Marché aux chevaux,  place du;77131;48.814539;3.084092;Place du Marche 77120 Coulommiers;0.41;street;77131_XXXX_6380d7;;Place du Marche;;77120;Coulommiers;77, Seine-et-Marne, Île-de-France;77131
IDF7701883;RN 5 bis;77305;48.394155;2.945906;Clos des Bois 77130 Montereau-Fault-Yonne;0.12;street;77305_A105_ad1faa;;Clos des Bois;;77130;Montereau-Fault-Yonne;77, Seine-et-Marne, Île-de-France;77305
IDF7700737;Chemin communal;77129;49.072733;3.124286;Chemin des Canes 77840 Coulombs-en-Valois;0.29;street;77129_XXXX_c4fae0;;Chemin des Canes;;77840;Coulombs-en-Valois;77, Seine-et-Marne, Île-de-France;77129
IDF7700741;Route Departemental;77157;49.031604;3.158807;Cour de la Croix 77440 Dhuisy;0.16;street;77157_0040_22a137;;Cour de la Croix;;77440;Dhuisy;77, Seine-et-Marne, Île-de-France;77157
IDF7700766;Prêtres, Chemin aux;77284;48.949208;2.909746;Square Chardin 77100 Meaux;0.23;street;77284_XXXX_8bbe5c;;Square Chardin;;77100;Meaux;77, Seine-et-Marne, Île-de-France;77284
IDF7702407;Saveteux, 1 route de;77453;48.522924;2.750246;Route de Chartrettes 77115 Sivry-Courtry;0.29;street;77453_XXXX_831431;;Route de Chartrettes;;77115;Sivry-Courtry;77, Seine-et-Marne, Île-de-France;77453
IDF7702333;RN36;77107;;;;;;;;;;;;;
IDF7702050;Moret, route de;77156;48.271849;2.734119;Route de Montereau 77140 Darvault;0.39;street;77156_XXXX_b23a3e;;Route de Montereau;;77140;Darvault;77, Seine-et-Marne, Île-de-France;77156
IDF7701594;Etats-Unis, 43 avenue des;77182;48.780703;3.299429;43 Avenue des États-Unis 77320 La Ferté-Gaucher;0.85;housenumber;ADRNIVX_0000000271756853;43;Avenue des États-Unis;;77320;La Ferté-Gaucher;77, Seine-et-Marne, Île-de-France;77182
IDF7701601;Pascale, 36 rue;77192;48.709671;2.87464;36 Rue Blaise Pascal 77610 Fontenay-Trésigny;0.48;housenumber;ADRNIVX_0000002101005277;36;Rue Blaise Pascal;;77610;Fontenay-Trésigny;77, Seine-et-Marne, Île-de-France;77192
IDF7702354;Renoir, 7 rue;77192;48.709294;2.87157;7 Rue Lenotre 77610 Fontenay-Trésigny;0.4;housenumber;ADRNIVX_0000000271769261;7;Rue Lenotre;;77610;Fontenay-Trésigny;77, Seine-et-Marne, Île-de-France;77192
IDF7701908;RN 4,  fosse aux sabot, lieu-dit;77192;;;;;;;;;;;;;
IDF7701921;RN 5;;;;;;;;;;;;;;
IDF7701922;RN 5;;;;;;;;;;;;;;
IDF7701642;Trou de Chaillouet, lieu-dit;77142;;;;;;;;;;;;;
IDF7702068;Bois Robert, lieu-dit le;77240;;;;;;;;;;;;;
IDF7701659;Vue grande, Lieu-dit La;77274;;;;;;;;;;;;;
IDF7701961;RN 33;77057;;;;;;;;;;;;;
IDF7702360;Talon et la reinet, lieu-dit;77210;;;;;;;;;;;;;
IDF7701946;RN 4, gauche;77192;;;;;;;;;;;;;
IDF7701947;RN 4 Droite;77192;;;;;;;;;;;;;
IDF7701948;RN 33;77448;;;;;;;;;;;;;
IDF7701952;RN 375, Dontilly;77159;48.477491;3.129892;Donnemarie-Dontilly;0.33;municipality;77159;;Donnemarie-Dontilly;;77520;Donnemarie-Dontilly;77, Seine-et-Marne, Île-de-France;77159
IDF7701960;RN 5;77054;;;;;;;;;;;;;
IDF7701965;RN7;77022;;;;;;;;;;;;;
IDF7701968;Etats-Unis, avenue des;77183;;;;;;;;;;;;;
IDF7702079;Grande, 8 rue;77234;48.917227;2.763048;8 Grande Rue 77450 Jablines;0.76;housenumber;ADRNIVX_0000000339901256;8;Grande Rue;;77450;Jablines;77, Seine-et-Marne, Île-de-France;77234
IDF7702081;Tertre de Berceau, lieu-dit;77453;;;;;;;;;;;;;
IDF7701980;zone industrielle;77108;;;;;;;;;;;;;
IDF7701988;Grande, 18 rue;77005;48.927715;2.719957;18 Rue du Général de Gaulle 77410 Annet-sur-Marne;0.77;housenumber;ADRNIVX_0000000271605229;18;Rue du Général de Gaulle;;77410;Annet-sur-Marne;77, Seine-et-Marne, Île-de-France;77005
IDF7701724;Butteau, hameau  de;77110;48.153471;2.660748;Butteau, HAMEAU BUTTEAU 77570 Chenou;0.55;street;77110_B005_77acf2;;Butteau, HAMEAU BUTTEAU;;77570;Chenou;77, Seine-et-Marne, Île-de-France;77110
IDF7701706;RN 7;77069;48.467806;2.614397;Chemin Vert 77930 Chailly-en-Bière;0.11;street;77069_XXXX_e0266c;;Chemin Vert;;77930;Chailly-en-Bière;77, Seine-et-Marne, Île-de-France;77069
IDF7701719;RN 4;77413;;;;;;;;;;;;;
IDF7702111;Herry, 7-9 rue Michel;77142;48.856519;2.908736;Rue Michel Herry 77580 Crécy-la-Chapelle;0.58;street;77142_1040_6613e8;;Rue Michel Herry;;77580;Crécy-la-Chapelle;77, Seine-et-Marne, Île-de-France;77142
IDF7702116;Gare SNCF;77108;48.884379;2.61999;Rue de Fresnes 77500 Chelles;0.17;street;77108_1580_aa7283;;Rue de Fresnes;;77500;Chelles;77, Seine-et-Marne, Île-de-France;77108
IDF7701726;RN 3;77335;48.958381;2.847174;Rn 3 Paris à Metz 77124 Chauconin-Neufmontiers;0.17;street;77335_XXXX_be82f8;;Rn 3 Paris à Metz;;77124;Chauconin-Neufmontiers;77, Seine-et-Marne, Île-de-France;77335
IDF7701764;Promenades, 24 rue des;77182;48.780195;3.30403;24 Rue des Promenades 77320 La Ferté-Gaucher;0.84;housenumber;ADRNIVX_0000000271757604;24;Rue des Promenades;;77320;La Ferté-Gaucher;77, Seine-et-Marne, Île-de-France;77182
IDF7702006;Ferté-sous-Jouarre, 15 rue de la;77131;48.815181;3.083632;15 Rue du Docteur René Arbeltier 77120 Coulommiers;0.81;housenumber;ADRNIVX_0000000271712836;15;Rue du Docteur René Arbeltier;;77120;Coulommiers;77, Seine-et-Marne, Île-de-France;77131
IDF7702013;Coudreaux, lieu-dit les;77139;;;;;;;;;;;;;
IDF7702091;gare, quartier de la;77088;48.319551;2.567723;Rue de la Gare 77760 La Chapelle-la-Reine;0.39;street;77088_0220_67ef96;;Rue de la Gare;;77760;La Chapelle-la-Reine;77, Seine-et-Marne, Île-de-France;77088
IDF7702101;ZAC;77337;;;;;;;;;;;;;
IDF7702047;Berceau, lieu-dit le;77453;;;;;;;;;;;;;
IDF7701785;Moisiel, 61 rue de;77243;48.879173;2.709887;61 Rue Saint-Denis 77400 Lagny-sur-Marne;0.36;housenumber;ADRNIVX_0000000271800048;61;Rue Saint-Denis;;77400;Lagny-sur-Marne;77, Seine-et-Marne, Île-de-France;77243
IDF7701806;cité, 1 rue de    Belle-Croix, hameau de la;77320;48.831371;3.033855;1 Rue de la Croix des Grès 77120 Mouroux;0.38;housenumber;ADRNIVX_0000000271877564;1;Rue de la Croix des Grès;;77120;Mouroux;77, Seine-et-Marne, Île-de-France;77320
IDF7701809;Presles-en-Brie;77377;48.713854;2.7404;Presles-en-Brie;0.92;municipality;77377;;Presles-en-Brie;;77220;Presles-en-Brie;77, Seine-et-Marne, Île-de-France;77377
IDF7702318;Stade, 9 rue du;77082;48.585133;2.810107;9 Rue du Stade 77720 Champeaux;0.67;housenumber;ADRNIVX_0000000271659312;9;Rue du Stade;;77720;Champeaux;77, Seine-et-Marne, Île-de-France;77082
IDF7702395;zone industrielle;77385;;;;;;;;;;;;;
IDF7703833;Orgemont, rue d';77335;48.980248;2.841063;Rue Georges Frisez 77124 Chauconin-Neufmontiers;0.22;street;77335_0220_1032de;;Rue Georges Frisez;;77124;Chauconin-Neufmontiers;77, Seine-et-Marne, Île-de-France;77335
IDF7703855;Thiers, quai;77284;48.954864;2.882475;Quai Jacques Prévert 77100 Meaux;0.21;street;77284_0634_b989c7;;Quai Jacques Prévert;;77100;Meaux;77, Seine-et-Marne, Île-de-France;77284
IDF7703881;Gare, 74 avenue de la;77420;49.03061;2.697512;74 Avenue de la Gare 77230 Saint-Mard;0.74;housenumber;ADRNIVX_0000000271970163;74;Avenue de la Gare;;77230;Saint-Mard;77, Seine-et-Marne, Île-de-France;77420
IDF7703884;Bois-le-Roi, avenue;77441;48.447164;2.748645;Avenue du Général Leclerc 77920 Samois-sur-Seine;0.22;street;77441_XXXX_edca47;;Avenue du Général Leclerc;;77920;Samois-sur-Seine;77, Seine-et-Marne, Île-de-France;77441
IDF7702187;Gonas, 12 rue;77128;48.884294;2.858846;12 Rue Pasteur 77860 Couilly-Pont-aux-Dames;0.31;housenumber;ADRNIVX_0000000271710904;12;Rue Pasteur;;77860;Couilly-Pont-aux-Dames;77, Seine-et-Marne, Île-de-France;77128
IDF7702198;Vignes, lieu-dit les;77180;;;;;;;;;;;;;
IDF7702215;Vingt-sept août, avenue du;77318;48.789246;2.916281;Rue du Vingt Sept Août 77163 Mortcerf;0.61;street;77318_0360_4b1baf;;Rue du Vingt Sept Août;;77163;Mortcerf;77, Seine-et-Marne, Île-de-France;77318
IDF7702231;Roosevelt,  39 avenue Franklin;77288;48.548063;2.664192;39 Avenue de Meaux 77000 Melun;0.27;housenumber;ADRNIVX_0000000271842877;39;Avenue de Meaux;;77000;Melun;77, Seine-et-Marne, Île-de-France;77288
IDF7702731;Nemours, rue de;77333;48.267029;2.692663;Rue de Paris 77140 Nemours;0.56;street;77333_0530_309417;;Rue de Paris;;77140;Nemours;77, Seine-et-Marne, Île-de-France;77333
IDF7702831;Moutiers, 63 rue du;77420;49.038416;2.686562;63 Rue du Moutiers 77230 Saint-Mard;0.72;housenumber;ADRNIVX_0000000271970532;63;Rue du Moutiers;;77230;Saint-Mard;77, Seine-et-Marne, Île-de-France;77420
IDF7702757;Mont Nesles-la-Gilberde, 23 rue du;77393;48.686822;2.959504;Impasse du Silo 77540 Rozay-en-Brie;0.29;street;77393_XXXX_96dfbd;;Impasse du Silo;;77540;Rozay-en-Brie;77, Seine-et-Marne, Île-de-France;77393
IDF7702801;RN19 4bis;77217;;;;;;;;;;;;;
IDF7702803;Huit mai 1945, avenue du;77482;48.370708;2.939858;Avenue du 8 Mai 1945 77130 Varennes-sur-Seine;0.59;street;77482_XXXX_0d8113;;Avenue du 8 Mai 1945;;77130;Varennes-sur-Seine;77, Seine-et-Marne, Île-de-France;77482
IDF7703038;Stade, 41 rue du;77082;48.58477;2.816558;41 Rue du Stade 77720 Champeaux;0.68;housenumber;ADRNIVX_0000000271659341;41;Rue du Stade;;77720;Champeaux;77, Seine-et-Marne, Île-de-France;77082
IDF7703564;Barauderie, 24 rue de la;77156;48.269287;2.730492;24 Rue de la Barauderie 77140 Darvault;0.76;housenumber;ADRNIVX_0000002100844489;24;Rue de la Barauderie;;77140;Darvault;77, Seine-et-Marne, Île-de-France;77156
IDF7703569;Bouligny, 3route de;77099;48.155198;2.694486;Route de Bougligny 77570 Château-Landon;0.57;street;77099_XXXX_eb14a4;;Route de Bougligny;;77570;Château-Landon;77, Seine-et-Marne, Île-de-France;77099
IDF7703571;PATHE, rue Charles;77114;48.72509;2.660772;Rue Charles Pathé 77173 Chevry-Cossigny;0.71;street;77114_0120_dd2a72;;Rue Charles Pathé;;77173;Chevry-Cossigny;77, Seine-et-Marne, Île-de-France;77114
IDF7703916;RN19;77352;;;;;;;;;;;;;
IDF7703933;Ségogne, rue;77079;48.392553;2.796107;Rue de Bourgogne 77430 Champagne-sur-Seine;0.36;street;77079_XXXX_938d75;;Rue de Bourgogne;;77430;Champagne-sur-Seine;77, Seine-et-Marne, Île-de-France;77079
IDF7703943;PATHE, 1 rue Charles;77114;48.722631;2.653598;1 Rue Charles Pathé 77173 Chevry-Cossigny;0.73;housenumber;ADRNIVX_0000000339920124;1;Rue Charles Pathé;;77173;Chevry-Cossigny;77, Seine-et-Marne, Île-de-France;77114
IDF7707241;RN 34;77413;;;;;;;;;;;;;
IDF7702286;Savary, chemin du Paul;77437;49.041305;2.812151;Rue du Chemin Blanc 77165 Saint-Soupplets;0.33;street;77437_0083_f0b4ca;;Rue du Chemin Blanc;;77165;Saint-Soupplets;77, Seine-et-Marne, Île-de-France;77437
IDF7702289;Moutiers, rue du;77420;49.036508;2.690998;Rue du Moutiers 77230 Saint-Mard;0.69;street;77420_0380_83259e;;Rue du Moutiers;;77230;Saint-Mard;77, Seine-et-Marne, Île-de-France;77420
IDF7702310;Villiers, route de;77048;48.332095;2.685248;Route de Villiers 77780 Bourron-Marlotte;0.71;street;77048_XXXX_d8f61d;;Route de Villiers;;77780;Bourron-Marlotte;77, Seine-et-Marne, Île-de-France;77048
IDF7703579;Gasset, parc d'activités du;77085;;;;;;;;;;;;;
IDF7703605;Fosse à sabot, lieu-dit la;77192;;;;;;;;;;;;;
IDF7703612;Mazures, chemin des;77216;48.312945;2.686841;Rue des Mazures 77880 Grez-sur-Loing;0.43;street;77216_0380_71c6ff;;Rue des Mazures;;77880;Grez-sur-Loing;77, Seine-et-Marne, Île-de-France;77216
IDF7703638;RN5;;46.282994;6.259001;Route Rn5 74140 Veigy-Foncenex;0.23;street;74293_XXXX_97dec6;;Route Rn5;;74140;Veigy-Foncenex;74, Haute-Savoie, Auvergne-Rhône-Alpes (Rhône-Alpes);74293
